Id,Time(seconds),Time(text),Latitude,Longitude,FlightMode,Altitude(feet),Altitude_meters,VpsAltitude(feet),VpsAltitude_meters,Speed(mph),Speed(m/s),HomeDistance(feet),HomeDistance(meters),HomeLatitude,HomeLongitude,GpsCount,BatteryPower(%),BatteryVoltage,BatteryVoltageDeviation,BatteryCell1Voltage,BatteryCell2Voltage,BatteryCell3Voltage,BatteryCell4Voltage,VelocityX,VelocityY,VelocityZ,Pitch,Roll,Yaw,RcAileron,RcElevator,RcGyro,RcRudder,RcThrottle,NonGpsError,GoHomeStatus,AppTip,AppWarning,AppMessage
1,0.6,0m 0.6s,39.23055371,-77.25512031,Starting Motors,0.0,0.0,0.3,0.1,0.0,0.0,0.0,0.0,0,0,10,97,16.99,0.007,4.245,4.246,4.247,4.252,0,0,0,0.6,0.5,49.9,0,0,0,0,0,,,Taking Off,The aircraft is in a Warning Zone (Unpaved Airports). Fly with caution here.,
2,0.7,0m 0.7s,39.23055377,-77.25512032,Starting Motors,0.0,0.0,0.3,0.1,0.0,0.0,5.2,1.6,39.230566,-77.25513006,10,97,16.99,0.007,4.245,4.246,4.247,4.252,0,0,0,0.7,0.5,49.9,0,0,0,0,0,,,,,
3,0.9,0m 0.9s,39.23055385,-77.25512032,Starting Motors,0.0,0.0,0.3,0.1,1.1,0.5,5.2,1.6,39.230566,-77.25513006,10,97,16.99,0.007,4.245,4.246,4.247,4.252,0,0,0,0.6,0.5,49.9,0,0,0,0,0,,,,,
4,1,0m 1s,39.23055391,-77.2551203,Starting Motors,0.0,0.0,0.3,0.1,0.0,0.0,5.2,1.6,39.230566,-77.25513006,10,97,16.99,0.007,4.245,4.246,4.247,4.252,0,0,0,0.6,0.5,49.9,0,0,0,0,0,,,,,
5,1.1,0m 1.1s,39.23055399,-77.2551203,Starting Motors,0.0,0.0,0.3,0.1,1.1,0.5,5.2,1.6,39.230566,-77.25513006,10,97,16.99,0.007,4.245,4.246,4.247,4.252,0,0,0,0.7,0.4,49.9,0,0,0,0,0,,,,,
6,1.2,0m 1.2s,39.23055407,-77.25512029,Starting Motors,0.0,0.0,0.3,0.1,0.0,0.0,5.2,1.6,39.230566,-77.25513006,10,97,16.99,0.007,4.245,4.246,4.247,4.252,0,0,0,0.7,0.5,49.9,0,0,0,0,0,,,,,
7,1.3,0m 1.3s,39.23055414,-77.25512028,Starting Motors,0.0,0.0,0.3,0.1,0.0,0.0,5.1,1.6,39.230566,-77.25513006,10,97,16.99,0.007,4.245,4.246,4.247,4.252,0,0,0,0.7,0.5,49.9,0,0,0,0,0,,,,,
8,1.4,0m 1.4s,39.23055421,-77.25512024,Starting Motors,0.0,0.0,0.3,0.1,1.1,0.5,5.1,1.6,39.230566,-77.25513006,10,97,16.99,0.007,4.245,4.246,4.247,4.252,0,0,0,0.7,0.5,49.9,0,0,0,0,0,,,,,
9,1.5,0m 1.5s,39.23055428,-77.25512021,Starting Motors,0.0,0.0,0.3,0.1,0.0,0.0,5.1,1.6,39.230566,-77.25513006,10,97,16.99,0.007,4.245,4.246,4.247,4.252,0,0,0,0.7,0.5,49.9,0,0,0,0,0,,,,,
10,1.6,0m 1.6s,39.23055434,-77.25512017,Auto Takeoff,0.0,0.0,0.3,0.1,0.0,0.0,5.1,1.6,39.230566,-77.25513006,10,97,16.99,0.007,4.245,4.246,4.247,4.252,0,0,0,0.7,0.5,49.9,0,0,0,0,0,,,,,
11,1.7,0m 1.7s,39.23055441,-77.25512014,Auto Takeoff,0.0,0.0,0.3,0.1,0.0,0.0,5.1,1.5,39.230566,-77.25513006,10,97,16.989,0.006,4.245,4.246,4.247,4.251,0,0,0,0.7,0.5,49.9,0,0,0,0,0,,,Taking Off,,
12,1.8,0m 1.8s,39.23055446,-77.25512009,Auto Takeoff,0.0,0.0,0.3,0.1,0.0,0.0,5.1,1.5,39.230566,-77.25513006,10,97,16.989,0.006,4.245,4.246,4.247,4.251,0,0,0,0.7,0.4,49.9,0,0,0,0,0,,,,,
13,1.9,0m 1.9s,39.23055452,-77.25512004,Auto Takeoff,0.0,0.0,0.3,0.1,0.0,0.0,5.1,1.5,39.230566,-77.25513006,10,97,16.989,0.006,4.245,4.246,4.247,4.251,0,0,0,0.7,0.4,50,0,0,0,0,0,,,,,
14,2,0m 2s,39.23055457,-77.25512,Auto Takeoff,0.0,0.0,0.3,0.1,0.0,0.0,5.1,1.5,39.230566,-77.25513006,10,97,16.989,0.006,4.245,4.246,4.247,4.251,0,0,0,0.7,0.4,49.9,0,0,0,0,0,,,,,
15,2.2,0m 2.2s,39.23055467,-77.25511996,Auto Takeoff,0.0,0.0,0.3,0.1,0.0,0.0,5.0,1.5,39.230566,-77.25513006,10,97,16.989,0.006,4.245,4.246,4.247,4.251,0,0,0,1.1,0.3,50,0,0,0,0,0,,,,,
16,2.3,0m 2.3s,39.23055471,-77.25511995,Auto Takeoff,0.0,0.0,0.3,0.1,0.7,0.3,5.0,1.5,39.230566,-77.25513006,10,97,16.989,0.006,4.245,4.246,4.247,4.251,0,0,0,1.4,0,50.1,0,0,0,0,0,,,,,
17,2.4,0m 2.4s,39.23055477,-77.25511997,Auto Takeoff,0.0,0.0,0.3,0.1,0.0,0.0,5.0,1.5,39.230566,-77.25513006,10,97,16.989,0.006,4.245,4.246,4.247,4.251,0,0,-0.1,1.4,-0.2,50,0,0,0,0,0,,,,,
18,2.5,0m 2.5s,39.23055482,-77.25512003,Auto Takeoff,0.0,0.0,0.3,0.1,0.0,0.0,5.0,1.5,39.230566,-77.25513006,10,97,16.989,0.006,4.245,4.246,4.247,4.251,0,0,-0.3,0.9,-0.1,50.1,0,0,0,0,0,,,,,
19,2.6,0m 2.6s,39.23055484,-77.25512013,Auto Takeoff,0.0,0.0,0.7,0.2,0.0,0.0,5.0,1.5,39.230566,-77.25513006,10,97,16.813,0.03,4.204,4.195,4.192,4.222,0,0,-0.4,-0.1,0,50,0,0,0,0,0,,,,,
20,2.8,0m 2.8s,39.23055488,-77.25512026,Auto Takeoff,0.3,0.1,1.0,0.3,0.0,0.0,0.0,0.0,39.23055476,-77.25511997,10,97,16.813,0.03,4.204,4.195,4.192,4.222,0,0,-0.6,-0.3,0,50,0,0,0,0,0,,,Home Point Recorded. RTH Altitude:  30m.,,
21,2.9,0m 2.9s,39.23055493,-77.25512027,Auto Takeoff,0.7,0.2,1.3,0.4,0.0,0.0,0.0,0.0,39.23055476,-77.25511997,10,97,16.813,0.03,4.204,4.195,4.192,4.222,0,0,-0.6,-0.2,0,50.1,0,0,0,0,0,,,,,
22,3,0m 3s,39.23055511,-77.25512024,Auto Takeoff,0.7,0.2,1.3,0.4,0.0,0.0,0.0,0.0,39.23055476,-77.25511997,10,97,16.813,0.03,4.204,4.195,4.192,4.222,0,0,-0.5,-0.3,0.2,50.1,0,0,0,0,0,,,,,
23,3.1,0m 3.1s,39.23055533,-77.25512019,Auto Takeoff,1.0,0.3,1.6,0.5,0.0,0.0,0.0,0.0,39.23055476,-77.25511997,10,97,16.813,0.03,4.204,4.195,4.192,4.222,0,0,-0.5,0,0.1,50.1,0,0,0,0,0,,,,,
24,3.2,0m 3.2s,39.2305557,-77.25512011,Auto Takeoff,1.0,0.3,1.6,0.5,0.0,0.0,0.0,0.0,39.23055476,-77.25511997,9,97,16.813,0.03,4.204,4.195,4.192,4.222,0,0,-0.4,0.1,-0.3,50,0,0,0,0,0,,,,,
25,3.3,0m 3.3s,39.23055604,-77.25512004,Auto Takeoff,1.3,0.4,2.0,0.6,0.0,0.0,0.4,0.1,39.23055476,-77.25511997,9,97,16.813,0.03,4.204,4.195,4.192,4.222,0,0,-0.4,0.2,-0.4,50,0,0,0,0,0,,,,,
26,3.4,0m 3.4s,39.23055638,-77.25512001,Auto Takeoff,1.3,0.4,2.0,0.6,0.0,0.0,0.6,0.2,39.23055476,-77.25511997,9,97,16.813,0.03,4.204,4.195,4.192,4.222,0,0,-0.4,0.3,-0.4,50,0,0,0,0,0,,,,,
27,3.5,0m 3.5s,39.23055663,-77.25511999,Auto Takeoff,1.6,0.5,2.3,0.7,1.1,0.5,0.6,0.2,39.23055476,-77.25511997,9,97,16.813,0.03,4.204,4.195,4.192,4.222,0,0,-0.4,0.2,-0.4,50,0,0,0,0,0,,,,,
28,3.6,0m 3.6s,39.23055678,-77.25512001,Auto Takeoff,1.6,0.5,2.3,0.7,0.0,0.0,0.8,0.2,39.23055476,-77.25511997,10,97,16.813,0.03,4.204,4.195,4.192,4.222,0,0,-0.4,0.2,-0.1,50,0,0,0,0,0,,,,,
29,3.7,0m 3.7s,39.23055688,-77.25512001,Auto Takeoff,1.6,0.5,2.6,0.8,0.0,0.0,0.8,0.2,39.23055476,-77.25511997,10,97,16.813,0.03,4.204,4.195,4.192,4.222,0,0,-0.4,0.4,0,50,0,0,0,0,0,,,,,
30,3.8,0m 3.8s,39.23055684,-77.25512003,Auto Takeoff,2.0,0.6,3.0,0.9,0.0,0.0,0.8,0.2,39.23055476,-77.25511997,10,97,16.813,0.03,4.204,4.195,4.192,4.222,0,0,-0.5,0.6,0.1,50,0,0,0,0,0,,,,,
31,3.9,0m 3.9s,39.2305568,-77.25512004,Auto Takeoff,2.3,0.7,3.0,0.9,0.0,0.0,0.8,0.2,39.23055476,-77.25511997,10,97,16.813,0.03,4.204,4.195,4.192,4.222,0,0,-0.5,0.4,0.1,50,0,0,0,0,0,,,,,
32,4,0m 4s,39.23055666,-77.25512009,Auto Takeoff,2.3,0.7,3.3,1.0,0.0,0.0,0.8,0.2,39.23055476,-77.25511997,10,97,16.813,0.03,4.204,4.195,4.192,4.222,0,0,-0.5,0.3,0,50,0,0,0,0,0,,,,,
33,4.1,0m 4.1s,39.23055658,-77.25512013,Auto Takeoff,2.6,0.8,3.3,1.0,0.0,0.0,0.7,0.2,39.23055476,-77.25511997,10,97,16.813,0.03,4.204,4.195,4.192,4.222,0,0,-0.5,0.4,-0.1,50,0,0,0,0,0,,,,,
34,4.2,0m 4.2s,39.23055646,-77.25512008,Auto Takeoff,2.6,0.8,3.6,1.1,0.0,0.0,0.6,0.2,39.23055476,-77.25511997,10,97,16.813,0.03,4.204,4.195,4.192,4.222,0,0,-0.5,0.3,-0.3,50,0,0,0,0,0,,,,,
35,4.3,0m 4.3s,39.23055641,-77.25511999,P-GPS,3.0,0.9,3.6,1.1,0.0,0.0,0.6,0.2,39.23055476,-77.25511997,10,97,16.813,0.03,4.204,4.195,4.192,4.222,0,0,-0.4,0.3,-0.2,50,0,0,0,0,0,,,,,
36,4.4,0m 4.4s,39.23055633,-77.25511994,P-GPS,3.0,0.9,3.6,1.1,0.0,0.0,0.5,0.2,39.23055476,-77.25511997,10,97,16.813,0.03,4.204,4.195,4.192,4.222,0,0,-0.3,0.3,-0.2,50,0,0,0,0,0,,,,,
37,4.5,0m 4.5s,39.23055629,-77.25511992,P-GPS,3.0,0.9,3.9,1.2,0.0,0.0,0.6,0.2,39.23055476,-77.25511997,10,97,16.813,0.03,4.204,4.195,4.192,4.222,0,0,-0.2,0.4,-0.2,50,0,0,0,0,0,,,,,
38,4.6,0m 4.6s,39.23055625,-77.2551199,P-GPS,3.0,0.9,3.9,1.2,0.0,0.0,0.5,0.2,39.23055476,-77.25511997,10,97,16.813,0.03,4.204,4.195,4.192,4.222,0,0,-0.1,0.4,-0.3,49.9,0,0,0,0,0,,,,,
39,4.7,0m 4.7s,39.23055625,-77.25511988,P-GPS,3.3,1.0,3.9,1.2,0.0,0.0,0.5,0.2,39.23055476,-77.25511997,10,97,16.349,0.015,4.086,4.081,4.086,4.096,0,0,0,0.4,-0.2,49.9,0,0,0,0,0,,,,,
40,4.8,0m 4.8s,39.2305562,-77.2551199,P-GPS,3.3,1.0,3.9,1.2,0.0,0.0,0.5,0.2,39.23055476,-77.25511997,10,97,16.349,0.015,4.086,4.081,4.086,4.096,0,0,0,0.3,-0.1,49.9,0,0,0,0,0,,,,,
41,4.9,0m 4.9s,39.23055614,-77.25511994,P-GPS,3.3,1.0,3.9,1.2,0.0,0.0,0.4,0.1,39.23055476,-77.25511997,10,97,16.349,0.015,4.086,4.081,4.086,4.096,0,0,0,0.3,0,49.8,0,0,0,0,0,,,,,
42,5,0m 5s,39.23055602,-77.25512001,P-GPS,3.3,1.0,3.9,1.2,0.0,0.0,0.4,0.1,39.23055476,-77.25511997,10,97,16.349,0.015,4.086,4.081,4.086,4.096,0,0,0,0.3,0,49.8,0,0,0,0,0,,,,,
43,5.1,0m 5.1s,39.23055592,-77.25512008,P-GPS,3.3,1.0,3.9,1.2,0.0,0.0,0.4,0.1,39.23055476,-77.25511997,10,97,16.349,0.015,4.086,4.081,4.086,4.096,0,0,0,0.1,0.2,49.9,0,0,0,0,0,,,,,
44,5.2,0m 5.2s,39.2305558,-77.25512018,P-GPS,3.3,1.0,3.9,1.2,0.0,0.0,0.4,0.1,39.23055476,-77.25511997,10,97,16.349,0.015,4.086,4.081,4.086,4.096,0,0,0,0,0.3,49.9,0,0,0,0,0,,,,,
45,5.3,0m 5.3s,39.2305557,-77.25512026,P-GPS,3.3,1.0,3.9,1.2,0.0,0.0,0.0,0.0,39.23055476,-77.25511997,10,97,16.349,0.015,4.086,4.081,4.086,4.096,0,0,0,0,0.4,50,0,0,0,0,0,,,,,
46,5.5,0m 5.5s,39.23055551,-77.25512046,P-GPS,3.3,1.0,3.9,1.2,0.0,0.0,0.4,0.1,39.23055476,-77.25511997,10,97,16.349,0.015,4.086,4.081,4.086,4.096,0,0,0,0,0.4,49.9,0,0,0,0,0,,,,,
47,5.6,0m 5.6s,39.23055545,-77.25512057,P-GPS,3.3,1.0,3.9,1.2,0.0,0.0,0.3,0.1,39.23055476,-77.25511997,10,97,16.26,0.019,4.064,4.057,4.063,4.076,0,0,0,0.1,0.5,49.8,0,0,0,0,0,,,,,
48,5.7,0m 5.7s,39.23055542,-77.25512065,P-GPS,3.3,1.0,3.9,1.2,0.0,0.0,0.4,0.1,39.23055476,-77.25511997,10,97,16.26,0.019,4.064,4.057,4.063,4.076,0,0,0,0.2,0.7,49.8,0,0,0,0,0,,,,,
49,5.8,0m 5.8s,39.2305554,-77.2551207,P-GPS,3.3,1.0,3.9,1.2,0.0,0.0,0.4,0.1,39.23055476,-77.25511997,10,97,16.26,0.019,4.064,4.057,4.063,4.076,0,0,0,0.4,0.7,49.8,0,0,0,0,0,,,,,
50,5.9,0m 5.9s,39.23055539,-77.25512074,P-GPS,3.3,1.0,3.9,1.2,0.0,0.0,0.4,0.1,39.23055476,-77.25511997,10,97,16.26,0.019,4.064,4.057,4.063,4.076,0,0,0,0.6,0.1,49.9,0,0,0,0,0,,,,,
51,6,0m 6s,39.23055538,-77.25512079,P-GPS,3.3,1.0,3.9,1.2,0.0,0.0,0.4,0.1,39.23055476,-77.25511997,10,97,16.26,0.019,4.064,4.057,4.063,4.076,0,0,0,0.3,0.5,49.9,0,0,0,0,0,,,,,
52,6.1,0m 6.1s,39.23055539,-77.25512086,P-GPS,3.3,1.0,3.9,1.2,0.0,0.0,0.4,0.1,39.23055476,-77.25511997,10,97,16.26,0.019,4.064,4.057,4.063,4.076,0,0,0,0.4,1.2,50,0,0,0,0,0,,,,,
53,6.2,0m 6.2s,39.23055543,-77.25512094,P-GPS,3.3,1.0,3.9,1.2,0.0,0.0,0.3,0.1,39.23055476,-77.25511997,10,97,16.26,0.019,4.064,4.057,4.063,4.076,0,0,0,0.7,1.6,50.1,0,0,0,0,0,,,,,
54,6.3,0m 6.3s,39.23055547,-77.25512105,P-GPS,3.3,1.0,3.9,1.2,0.0,0.0,0.4,0.1,39.23055476,-77.25511997,10,97,16.26,0.019,4.064,4.057,4.063,4.076,0,0,0,0.5,1.8,50.2,0,0,0,0,0,,,,,
55,6.4,0m 6.4s,39.23055553,-77.25512114,P-GPS,3.3,1.0,3.9,1.2,0.0,0.0,0.4,0.1,39.23055476,-77.25511997,10,97,16.26,0.019,4.064,4.057,4.063,4.076,0,0,0,0.3,2,50.2,0,0,0,0,0,,,,,
56,6.5,0m 6.5s,39.23055559,-77.25512122,P-GPS,3.3,1.0,3.9,1.2,0.0,0.0,0.4,0.1,39.23055476,-77.25511997,10,97,16.26,0.019,4.064,4.057,4.063,4.076,0.1,0,0,0.4,2.2,50.2,0,0,0,0,0,,,,,
57,6.6,0m 6.6s,39.23055566,-77.25512132,P-GPS,3.0,0.9,3.9,1.2,0.0,0.0,0.4,0.1,39.23055476,-77.25511997,10,97,16.26,0.019,4.064,4.057,4.063,4.076,0,0,0,0.6,2.6,50.2,0,0,0,0,0,,,,,
58,6.7,0m 6.7s,39.23055572,-77.25512144,P-GPS,3.0,0.9,3.9,1.2,0.0,0.0,0.6,0.2,39.23055476,-77.25511997,10,97,16.26,0.019,4.064,4.057,4.063,4.076,0,0,0,0.5,2.8,50.2,0,0,0,0,0,,,,,
59,6.8,0m 6.8s,39.23055577,-77.25512157,P-GPS,3.0,0.9,3.9,1.2,0.0,0.0,0.6,0.2,39.23055476,-77.25511997,10,97,16.26,0.019,4.064,4.057,4.063,4.076,0,0,0,0.3,3.2,50.2,0,0,0,0,0,,,,,
60,6.9,0m 6.9s,39.23055579,-77.25512169,P-GPS,3.0,0.9,3.9,1.2,1.1,0.5,0.5,0.2,39.23055476,-77.25511997,10,97,16.26,0.019,4.064,4.057,4.063,4.076,0,0,0,-0.1,3.2,50.2,0,0,0,0,0,,,,,
61,7.1,0m 7.1s,39.23055568,-77.25512193,P-GPS,3.0,0.9,3.9,1.2,0.0,0.0,0.6,0.2,39.23055476,-77.25511997,10,97,16.26,0.019,4.064,4.057,4.063,4.076,0,0,0,-0.7,2.9,50.2,0,0,0,0,0,,,,,
62,7.2,0m 7.2s,39.23055554,-77.25512205,P-GPS,3.0,0.9,3.9,1.2,0.0,0.0,0.6,0.2,39.23055476,-77.25511997,10,97,16.26,0.019,4.064,4.057,4.063,4.076,0,0,0,-0.7,3,50.1,0,0,0,0,0,,,,,
63,7.3,0m 7.3s,39.23055539,-77.25512215,P-GPS,3.0,0.9,3.9,1.2,0.0,0.0,0.7,0.2,39.23055476,-77.25511997,10,97,16.26,0.019,4.064,4.057,4.063,4.076,0,0,0,-0.6,2.8,50,0,0,0,0,0,,,,,
64,7.4,0m 7.4s,39.23055519,-77.25512222,P-GPS,3.0,0.9,3.9,1.2,0.0,0.0,0.6,0.2,39.23055476,-77.25511997,10,97,16.26,0.019,4.064,4.057,4.063,4.076,0,0,0,-0.4,2.4,50,0,0,0,0,0,,,,,
65,7.5,0m 7.5s,39.23055503,-77.25512226,P-GPS,3.3,1.0,3.9,1.2,0.0,0.0,0.6,0.2,39.23055476,-77.25511997,10,97,16.26,0.019,4.064,4.057,4.063,4.076,0,0,0,-0.3,2.3,49.9,0,0,0,0,0,,,,,
66,7.6,0m 7.6s,39.23055486,-77.2551223,P-GPS,3.3,1.0,3.9,1.2,0.0,0.0,0.6,0.2,39.23055476,-77.25511997,10,97,16.26,0.019,4.064,4.057,4.063,4.076,0,0,0,-0.2,2.2,49.9,0,0,0,0,0,,,,,
67,7.7,0m 7.7s,39.23055471,-77.25512231,P-GPS,3.3,1.0,3.9,1.2,0.0,0.0,0.7,0.2,39.23055476,-77.25511997,10,97,16.26,0.019,4.064,4.057,4.063,4.076,0,0,0,0.2,1.7,50,0,0,0,0,0,,,,,
68,7.8,0m 7.8s,39.23055452,-77.25512232,P-GPS,3.3,1.0,3.9,1.2,0.0,0.0,0.7,0.2,39.23055476,-77.25511997,10,97,16.26,0.019,4.064,4.057,4.063,4.076,0,0,0,0.3,1.3,50.2,0,0,0,0,0,,,,,
69,7.9,0m 7.9s,39.23055432,-77.25512234,P-GPS,3.3,1.0,3.9,1.2,0.0,0.0,0.7,0.2,39.23055476,-77.25511997,10,97,16.26,0.019,4.064,4.057,4.063,4.076,0,0,0,-0.1,1.2,50.3,0,0,0,0,0,,,,,
70,8,0m 8s,39.23055409,-77.25512239,P-GPS,3.3,1.0,4.3,1.3,0.0,0.0,0.7,0.2,39.23055476,-77.25511997,10,97,16.26,0.019,4.064,4.057,4.063,4.076,0,0,0,-0.4,1.2,50.3,0,0,0,0,0,,,,,
71,8.1,0m 8.1s,39.23055387,-77.25512245,P-GPS,3.3,1.0,4.3,1.3,0.0,0.0,0.8,0.2,39.23055476,-77.25511997,10,97,16.26,0.019,4.064,4.057,4.063,4.076,0,0,0,-0.5,1.2,50.3,0,0,0,0,0,,,,,
72,8.2,0m 8.2s,39.23055363,-77.25512254,P-GPS,3.3,1.0,3.9,1.2,0.0,0.0,0.8,0.3,39.23055476,-77.25511997,10,97,16.26,0.019,4.064,4.057,4.063,4.076,0,0,0,-0.5,1.2,50.2,0,0,0,0,0,,,,,
73,8.3,0m 8.3s,39.23055341,-77.25512263,P-GPS,3.3,1.0,3.9,1.2,0.0,0.0,0.9,0.3,39.23055476,-77.25511997,10,97,16.26,0.019,4.064,4.057,4.063,4.076,0,0,0,-0.4,1.5,50.1,0,0,0,0,0,,,,,
74,8.5,0m 8.5s,39.23055297,-77.25512288,P-GPS,3.3,1.0,3.9,1.2,0.0,0.0,1.0,0.3,39.23055476,-77.25511997,10,97,16.26,0.019,4.064,4.057,4.063,4.076,0,0,0,0,1.2,49.8,0,0,0,0,0,,,,,
75,8.6,0m 8.6s,39.23055275,-77.255123,P-GPS,3.3,1.0,3.9,1.2,0.0,0.0,1.2,0.4,39.23055476,-77.25511997,9,97,16.198,0.021,4.051,4.04,4.046,4.061,0,0,0,-0.2,1.1,49.7,0,0,0,0,0,,,,,
76,8.7,0m 8.7s,39.23055254,-77.25512311,P-GPS,3.3,1.0,3.9,1.2,0.0,0.0,1.2,0.4,39.23055476,-77.25511997,9,97,16.198,0.021,4.051,4.04,4.046,4.061,0,0,0,-0.3,1,49.6,0,0,0,0,0,,,,,
77,8.8,0m 8.8s,39.23055235,-77.25512322,P-GPS,3.3,1.0,3.9,1.2,0.0,0.0,1.2,0.4,39.23055476,-77.25511997,9,97,16.198,0.021,4.051,4.04,4.046,4.061,0,0,0,-0.5,1.4,49.7,0,0,0,0,0,,,,,
78,8.9,0m 8.9s,39.2305522,-77.25512332,P-GPS,3.3,1.0,3.9,1.2,0.0,0.0,1.3,0.4,39.23055476,-77.25511997,9,97,16.198,0.021,4.051,4.04,4.046,4.061,0,0,0,-0.6,1.8,49.8,0,0,0,0,0,,,,,
79,9,0m 9s,39.23055206,-77.25512342,P-GPS,3.3,1.0,3.9,1.2,0.0,0.0,1.4,0.4,39.23055476,-77.25511997,9,97,16.198,0.021,4.051,4.04,4.046,4.061,0,0,0,-0.5,1.8,49.7,0,0,0,0,0,,,,,
80,9.1,0m 9.1s,39.23055193,-77.25512351,P-GPS,3.3,1.0,3.9,1.2,0.0,0.0,1.5,0.4,39.23055476,-77.25511997,9,97,16.198,0.021,4.051,4.04,4.046,4.061,0,0,0,-0.3,1.6,49.6,0,0,0,0,0,,,,,
81,9.2,0m 9.2s,39.23055184,-77.25512357,P-GPS,3.3,1.0,3.9,1.2,0.0,0.0,1.5,0.5,39.23055476,-77.25511997,9,97,16.198,0.021,4.051,4.04,4.046,4.061,0,0,0,-0.3,1.6,49.7,0,0,0,0,0,,,,,
82,9.3,0m 9.3s,39.23055176,-77.25512362,P-GPS,3.0,0.9,3.9,1.2,0.0,0.0,1.5,0.5,39.23055476,-77.25511997,9,97,16.198,0.021,4.051,4.04,4.046,4.061,0,0,0,-0.3,1.8,49.6,0,0,0,0,0,,,,,
83,9.4,0m 9.4s,39.23055175,-77.25512367,P-GPS,3.0,0.9,3.9,1.2,0.0,0.0,1.5,0.5,39.23055476,-77.25511997,9,97,16.198,0.021,4.051,4.04,4.046,4.061,0,0,0,0,2.2,49.6,0,0,0,0,0,,,,,
84,9.5,0m 9.5s,39.23055173,-77.25512372,P-GPS,3.0,0.9,3.9,1.2,1.1,0.5,1.5,0.5,39.23055476,-77.25511997,9,97,16.198,0.021,4.051,4.04,4.046,4.061,0,0,0,0.3,2.3,49.7,0,0,0,0,0,,,,,
85,9.6,0m 9.6s,39.23055174,-77.25512376,P-GPS,3.0,0.9,3.9,1.2,1.1,0.5,1.6,0.5,39.23055476,-77.25511997,9,97,16.198,0.021,4.051,4.04,4.046,4.061,0,0,0,0.2,2.1,49.8,0,0,0,0,0,,,,,
86,9.7,0m 9.7s,39.23055172,-77.25512382,P-GPS,3.0,0.9,3.9,1.2,0.0,0.0,1.6,0.5,39.23055476,-77.25511997,9,97,16.201,0.019,4.052,4.042,4.046,4.061,0,0,0,0,2.1,49.9,0,0,0,0,0,,,,,
87,9.8,0m 9.8s,39.23055171,-77.25512388,P-GPS,3.0,0.9,3.9,1.2,0.0,0.0,1.6,0.5,39.23055476,-77.25511997,9,97,16.201,0.019,4.052,4.042,4.046,4.061,0,0,0,0,2.5,50,0,0,0,0,0,,,,,
88,10,0m 10s,39.23055164,-77.25512402,P-GPS,3.3,1.0,3.9,1.2,0.0,0.0,1.6,0.5,39.23055476,-77.25511997,9,97,16.201,0.019,4.052,4.042,4.046,4.061,0,0,0,-0.5,2.8,50.1,0,0,0,0,0,,,,,
89,10.1,0m 10.1s,39.23055159,-77.25512407,P-GPS,3.3,1.0,3.9,1.2,0.0,0.0,1.6,0.5,39.23055476,-77.25511997,9,97,16.201,0.019,4.052,4.042,4.046,4.061,0,0,0,-0.1,2.7,50.1,0,0,0,0,0,,,,,
90,10.2,0m 10.2s,39.23055154,-77.25512409,P-GPS,3.3,1.0,3.9,1.2,0.0,0.0,1.6,0.5,39.23055476,-77.25511997,9,97,16.201,0.019,4.052,4.042,4.046,4.061,0,0,0,0,2.1,50,0,0,0,0,0,,,,,
91,10.3,0m 10.3s,39.23055148,-77.25512411,P-GPS,3.3,1.0,3.9,1.2,0.0,0.0,1.6,0.5,39.23055476,-77.25511997,9,97,16.201,0.019,4.052,4.042,4.046,4.061,0,0,0,-0.1,1.9,49.9,0,0,0,0,0,,,,,
92,10.4,0m 10.4s,39.23055144,-77.25512417,P-GPS,3.3,1.0,3.9,1.2,0.0,0.0,1.6,0.5,39.23055476,-77.25511997,9,97,16.201,0.019,4.052,4.042,4.046,4.061,0,0,0,-0.1,1.9,49.9,0,0,0,0,0,,,,,
93,10.5,0m 10.5s,39.23055141,-77.25512423,P-GPS,3.3,1.0,3.9,1.2,0.0,0.0,1.7,0.5,39.23055476,-77.25511997,9,97,16.201,0.019,4.052,4.042,4.046,4.061,0,0,0,0,2.3,50,0,0,0,0,0,,,,,
94,10.6,0m 10.6s,39.23055137,-77.2551243,P-GPS,3.3,1.0,3.9,1.2,0.0,0.0,1.8,0.5,39.23055476,-77.25511997,10,97,16.201,0.019,4.052,4.042,4.046,4.061,0,0,0,0,2.5,50,0,0,0,0,0,,,,,
95,10.7,0m 10.7s,39.23055131,-77.25512437,P-GPS,3.3,1.0,3.9,1.2,0.0,0.0,1.8,0.5,39.23055476,-77.25511997,10,97,16.201,0.019,4.052,4.042,4.046,4.061,0,0,0,-0.1,2.7,49.9,0,0,0,0,0,,,,,
96,10.8,0m 10.8s,39.23055124,-77.25512442,P-GPS,3.3,1.0,3.9,1.2,0.0,0.0,1.8,0.6,39.23055476,-77.25511997,10,97,16.201,0.019,4.052,4.042,4.046,4.061,0,0,0,-0.2,2.3,49.9,0,0,0,0,0,,,,,
97,10.9,0m 10.9s,39.23055118,-77.25512445,P-GPS,3.3,1.0,3.9,1.2,1.1,0.5,1.8,0.6,39.23055476,-77.25511997,10,97,16.201,0.019,4.052,4.042,4.046,4.061,0,0,0,0,2.3,49.9,0,0,0,0,0,,,,,
98,11,0m 11s,39.23055112,-77.25512446,P-GPS,3.3,1.0,4.3,1.3,0.0,0.0,1.8,0.6,39.23055476,-77.25511997,10,97,16.201,0.019,4.052,4.042,4.046,4.061,0,0,0,0.6,2,50,0,0,0,0,0,,,,,
99,11.1,0m 11.1s,39.23055107,-77.25512448,P-GPS,3.3,1.0,3.9,1.2,0.0,0.0,1.9,0.6,39.23055476,-77.25511997,10,97,16.201,0.019,4.052,4.042,4.046,4.061,0,0,0,0.7,1.9,50.2,0,0,0,0,0,,,,,
100,11.2,0m 11.2s,39.230551,-77.25512452,P-GPS,3.3,1.0,3.9,1.2,0.0,0.0,1.9,0.6,39.23055476,-77.25511997,10,97,16.201,0.019,4.052,4.042,4.046,4.061,0,0,0,0.4,2.4,50.2,0,0,0,0,0,,,,,
101,11.4,0m 11.4s,39.23055081,-77.25512461,P-GPS,3.0,0.9,3.9,1.2,0.7,0.3,1.9,0.6,39.23055476,-77.25511997,10,97,16.201,0.019,4.052,4.042,4.046,4.061,0,0,0,-0.2,2.3,50.3,0,0,0,0,0,,,,,
102,11.5,0m 11.5s,39.23055067,-77.25512465,P-GPS,3.0,0.9,3.9,1.2,0.0,0.0,2.0,0.6,39.23055476,-77.25511997,10,97,16.201,0.019,4.052,4.042,4.046,4.061,0,0,0,-0.2,2.3,50.3,1024,1024,1024,1039,1024,,,,,
103,11.6,0m 11.6s,39.23055054,-77.25512469,P-GPS,3.0,0.9,3.9,1.2,0.0,0.0,2.1,0.6,39.23055476,-77.25511997,10,97,16.201,0.019,4.052,4.042,4.046,4.061,0,0,0,-0.2,2,50.2,1024,1024,1024,1024,1024,,,,,
104,11.7,0m 11.7s,39.23055044,-77.25512472,P-GPS,3.0,0.9,3.9,1.2,0.0,0.0,2.1,0.6,39.23055476,-77.25511997,10,97,16.189,0.022,4.046,4.038,4.045,4.06,0,0,0,0,1.8,50.2,1024,1024,1024,1024,1024,,,,,
105,11.8,0m 11.8s,39.23055034,-77.25512474,P-GPS,3.0,0.9,3.9,1.2,0.0,0.0,2.1,0.6,39.23055476,-77.25511997,10,97,16.189,0.022,4.046,4.038,4.045,4.06,0,0,0,0,1.6,50.2,1024,1024,1024,1024,1090,,,,,
106,11.9,0m 11.9s,39.23055024,-77.25512476,P-GPS,3.0,0.9,3.9,1.2,0.0,0.0,2.1,0.6,39.23055476,-77.25511997,10,97,16.189,0.022,4.046,4.038,4.045,4.06,0,0,0,-0.3,1.5,50.1,1024,1024,1024,1024,1214,,,,,
107,12,0m 12s,39.23055016,-77.25512476,P-GPS,3.0,0.9,3.9,1.2,0.0,0.0,2.2,0.7,39.23055476,-77.25511997,10,97,16.189,0.022,4.046,4.038,4.045,4.06,0,0,0,-0.3,1.2,50,1024,1024,1024,1024,1288,,,,,
108,12.1,0m 12.1s,39.23055009,-77.25512475,P-GPS,3.3,1.0,3.9,1.2,0.0,0.0,2.2,0.7,39.23055476,-77.25511997,10,97,16.189,0.022,4.046,4.038,4.045,4.06,0,0,-0.2,0,1.2,49.9,1024,1024,1024,1024,1279,,,,,
109,12.2,0m 12.2s,39.23055004,-77.25512474,P-GPS,3.3,1.0,4.3,1.3,1.1,0.5,2.2,0.7,39.23055476,-77.25511997,10,97,16.189,0.022,4.046,4.038,4.045,4.06,0,0,-0.5,0.7,1.7,50,1024,1024,1024,1024,1279,,,,,
110,12.3,0m 12.3s,39.23054999,-77.25512474,P-GPS,3.6,1.1,4.3,1.3,0.0,0.0,2.2,0.7,39.23055476,-77.25511997,10,97,16.189,0.022,4.046,4.038,4.045,4.06,0,0,-0.8,1.1,2.2,50.1,1024,1024,1024,1024,1246,,,,,
111,12.4,0m 12.4s,39.23054993,-77.25512474,P-GPS,3.9,1.2,4.6,1.4,0.0,0.0,2.2,0.7,39.23055476,-77.25511997,10,97,16.189,0.022,4.046,4.038,4.045,4.06,0,0,-1,0.9,2.1,50.2,1024,1024,1024,1024,1239,,,,,
112,12.5,0m 12.5s,39.23054985,-77.25512477,P-GPS,4.3,1.3,4.9,1.5,0.0,0.0,2.2,0.7,39.23055476,-77.25511997,10,97,16.189,0.022,4.046,4.038,4.045,4.06,0,0,-1.1,0.4,2,50.2,1024,1024,1024,1024,1240,,,,,
113,12.6,0m 12.6s,39.23054978,-77.2551248,P-GPS,4.6,1.4,5.2,1.6,0.0,0.0,2.3,0.7,39.23055476,-77.25511997,10,97,16.176,0.022,4.043,4.035,4.041,4.057,0,0,-1,-0.1,1.8,50.2,1024,1024,1024,1024,1240,,,,,
114,12.7,0m 12.7s,39.23054971,-77.25512482,P-GPS,4.9,1.5,5.6,1.7,0.0,0.0,2.3,0.7,39.23055476,-77.25511997,10,97,16.176,0.022,4.043,4.035,4.041,4.057,0,0,-1,-0.2,1.7,50.2,1024,1024,1024,1024,1232,,,,,
115,12.9,0m 12.9s,39.23054971,-77.25512488,P-GPS,5.6,1.7,6.2,1.9,0.0,0.0,2.3,0.7,39.23055476,-77.25511997,10,97,16.176,0.022,4.043,4.035,4.041,4.057,0,0,-0.9,-0.6,1.9,50.1,1024,1024,1024,1024,1222,,,,,
116,13,0m 13s,39.23054973,-77.25512489,P-GPS,5.9,1.8,6.6,2.0,0.0,0.0,2.3,0.7,39.23055476,-77.25511997,10,97,16.176,0.022,4.043,4.035,4.041,4.057,0,0,-0.8,-0.4,1.8,50.1,1024,1024,1024,1024,1207,,,,,
117,13.2,0m 13.2s,39.23054972,-77.25512484,P-GPS,6.2,1.9,6.9,2.1,0.0,0.0,2.3,0.7,39.23055476,-77.25511997,10,97,16.176,0.022,4.043,4.035,4.041,4.057,0,0,-0.7,0.2,1.5,50.2,1024,1024,1024,1024,1197,,,,,
118,13.3,0m 13.3s,39.23054968,-77.25512481,P-GPS,6.6,2.0,7.2,2.2,0.0,0.0,2.3,0.7,39.23055476,-77.25511997,10,97,16.176,0.022,4.043,4.035,4.041,4.057,0,0,-0.7,0,1.3,50.2,1024,1024,1024,1024,1198,,,,,
119,13.4,0m 13.4s,39.23054966,-77.25512481,P-GPS,6.9,2.1,7.5,2.3,0.0,0.0,2.3,0.7,39.23055476,-77.25511997,10,97,16.176,0.022,4.043,4.035,4.041,4.057,0,0,-0.6,0.1,1.7,50,1024,1024,1024,1024,1196,,,,,
120,13.5,0m 13.5s,39.23054967,-77.25512481,P-GPS,6.9,2.1,7.9,2.4,0.0,0.0,2.3,0.7,39.23055476,-77.25511997,10,97,16.176,0.022,4.043,4.035,4.041,4.057,0,0,-0.6,0.7,2,49.9,1024,1024,1024,1024,1196,,,,,
121,13.6,0m 13.6s,39.23054968,-77.25512478,P-GPS,7.2,2.2,7.9,2.4,0.0,0.0,2.3,0.7,39.23055476,-77.25511997,10,97,16.064,0.021,4.027,4.006,4.01,4.021,0,0,-0.6,1.2,1.7,50,1024,1024,1024,1024,1193,,,,,
122,13.7,0m 13.7s,39.23054968,-77.25512473,P-GPS,7.5,2.3,8.2,2.5,0.0,0.0,2.3,0.7,39.23055476,-77.25511997,10,97,16.064,0.021,4.027,4.006,4.01,4.021,0,0,-0.6,1,1.1,50,1024,1024,1024,1024,1147,,,,,
123,13.8,0m 13.8s,39.23054967,-77.25512465,P-GPS,7.5,2.3,8.5,2.6,0.0,0.0,2.2,0.7,39.23055476,-77.25511997,10,97,16.064,0.021,4.027,4.006,4.01,4.021,0,0.1,-0.5,0.9,0.5,50,1024,1024,1024,1024,1024,,,,,
124,13.9,0m 13.9s,39.23054966,-77.25512455,P-GPS,7.9,2.4,8.5,2.6,0.0,0.0,2.3,0.7,39.23055476,-77.25511997,10,97,16.064,0.021,4.027,4.006,4.01,4.021,0,0.1,-0.3,0.8,0.2,50.1,1024,1024,1024,1024,1024,,,,,
125,14,0m 14s,39.23054963,-77.25512439,P-GPS,7.9,2.4,8.9,2.7,0.0,0.0,2.3,0.7,39.23055476,-77.25511997,10,97,16.064,0.021,4.027,4.006,4.01,4.021,0,0.1,-0.2,1.5,0.2,50.1,1024,1024,1024,1024,1024,,,,,
126,14.1,0m 14.1s,39.23054959,-77.25512421,P-GPS,7.9,2.4,8.9,2.7,0.0,0.0,2.2,0.7,39.23055476,-77.25511997,10,97,16.064,0.021,4.027,4.006,4.01,4.021,0,0.1,-0.1,2,-0.1,50.1,1024,1024,1024,939,1024,,,,,
127,14.2,0m 14.2s,39.23054953,-77.25512405,P-GPS,7.9,2.4,8.9,2.7,0.0,0.0,2.2,0.7,39.23055476,-77.25511997,10,97,16.064,0.021,4.027,4.006,4.01,4.021,0,0.1,0,2.2,-0.6,50,1024,1024,1024,822,1024,,,,,
128,14.3,0m 14.3s,39.23054949,-77.25512392,P-GPS,7.9,2.4,8.9,2.7,0.0,0.0,2.2,0.7,39.23055476,-77.25511997,10,97,16.064,0.021,4.027,4.006,4.01,4.021,0,0,0,2.1,-0.9,48.4,1024,1024,1024,790,1024,,,,,
129,14.4,0m 14.4s,39.23054944,-77.25512384,P-GPS,7.9,2.4,8.9,2.7,0.0,0.0,2.2,0.7,39.23055476,-77.25511997,10,97,16.064,0.021,4.027,4.006,4.01,4.021,0,0,0,1.9,-0.6,45.3,1024,1024,1024,789,1024,,,,,
130,14.5,0m 14.5s,39.23054943,-77.25512378,P-GPS,7.9,2.4,8.9,2.7,0.0,0.0,2.2,0.7,39.23055476,-77.25511997,10,97,16.064,0.021,4.027,4.006,4.01,4.021,0,0,0,2.1,-0.1,41.8,1024,1024,1024,786,1024,,,,,
131,14.6,0m 14.6s,39.2305494,-77.25512377,P-GPS,7.9,2.4,8.9,2.7,0.0,0.0,2.2,0.7,39.23055476,-77.25511997,10,97,16.064,0.021,4.027,4.006,4.01,4.021,0,0,0,2.3,0.1,38.3,1024,1024,1024,775,1024,,,,,
132,14.7,0m 14.7s,39.23054938,-77.25512378,P-GPS,7.9,2.4,8.9,2.7,0.0,0.0,2.2,0.7,39.23055476,-77.25511997,10,97,16.064,0.021,4.027,4.006,4.01,4.021,0,0,0,2.6,0.3,34.7,1024,1024,1024,771,1024,,,,,
133,14.8,0m 14.8s,39.23054934,-77.25512382,P-GPS,7.9,2.4,8.9,2.7,0.0,0.0,2.2,0.7,39.23055476,-77.25511997,10,97,16.064,0.021,4.027,4.006,4.01,4.021,0,0,0,2.7,0,30.9,1024,1024,1024,764,1024,,,,,
134,14.9,0m 14.9s,39.23054932,-77.25512386,P-GPS,7.9,2.4,8.9,2.7,0.0,0.0,2.3,0.7,39.23055476,-77.25511997,10,97,16.064,0.021,4.027,4.006,4.01,4.021,0,0,0,2.6,-0.3,27,1024,1024,1024,762,1024,,,,,
135,15.1,0m 15.1s,39.23054925,-77.25512401,P-GPS,8.2,2.5,9.2,2.8,0.0,0.0,2.3,0.7,39.23055476,-77.25511997,10,97,16.064,0.021,4.027,4.006,4.01,4.021,0,0,0,2.7,-0.1,19,1024,1024,1024,765,1024,,,,,
136,15.2,0m 15.2s,39.2305492,-77.25512409,P-GPS,8.2,2.5,8.9,2.7,0.0,0.0,2.4,0.7,39.23055476,-77.25511997,10,97,16.064,0.021,4.027,4.006,4.01,4.021,0,0,0,2.7,0,15.1,1024,1024,1024,764,1024,,,,,
137,15.3,0m 15.3s,39.23054913,-77.25512417,P-GPS,8.2,2.5,8.9,2.7,0.0,0.0,2.4,0.7,39.23055476,-77.25511997,10,97,16.064,0.021,4.027,4.006,4.01,4.021,0,0,0,2.6,-0.2,11.2,1024,1024,1024,764,1024,,,,,
138,15.4,0m 15.4s,39.23054905,-77.2551243,P-GPS,8.2,2.5,8.9,2.7,0.0,0.0,2.4,0.7,39.23055476,-77.25511997,10,97,16.064,0.021,4.027,4.006,4.01,4.021,0,0,0,2.4,-0.3,7.4,1024,1024,1024,764,1024,,,,,
139,15.5,0m 15.5s,39.23054896,-77.25512445,P-GPS,8.2,2.5,8.9,2.7,0.0,0.0,2.5,0.8,39.23055476,-77.25511997,10,97,16.064,0.021,4.027,4.006,4.01,4.021,0,0,0,2.2,-0.3,3.5,1024,1024,1024,755,1024,,,,,
140,15.6,0m 15.6s,39.23054884,-77.25512465,P-GPS,8.2,2.5,8.9,2.7,0.0,0.0,2.5,0.8,39.23055476,-77.25511997,10,97,16.064,0.021,4.027,4.006,4.01,4.021,0,0,0,2.1,-0.1,-0.4,1024,1024,1024,753,1024,,,,,
141,15.7,0m 15.7s,39.23054871,-77.25512484,P-GPS,8.2,2.5,8.9,2.7,0.0,0.0,2.6,0.8,39.23055476,-77.25511997,10,96,16.255,0.039,4.051,4.049,4.067,4.088,0,0,0,2.1,0,-4.5,1024,1024,1024,751,1024,,,,,
142,15.8,0m 15.8s,39.23054854,-77.25512512,P-GPS,8.2,2.5,8.9,2.7,0.0,0.0,2.7,0.8,39.23055476,-77.25511997,10,96,16.255,0.039,4.051,4.049,4.067,4.088,0,0,0,2.2,-0.1,-8.7,1024,1024,1024,740,1024,,,,,
143,15.9,0m 15.9s,39.23054837,-77.25512538,P-GPS,8.2,2.5,8.9,2.7,0.0,0.0,2.8,0.8,39.23055476,-77.25511997,10,96,16.255,0.039,4.051,4.049,4.067,4.088,0,0,0,2,-0.3,-12.9,1024,1024,1024,745,1024,,,,,
144,16,0m 16s,39.23054816,-77.25512574,P-GPS,8.2,2.5,8.9,2.7,1.5,0.7,2.9,0.9,39.23055476,-77.25511997,10,96,16.255,0.039,4.051,4.049,4.067,4.088,0,0,0,1.8,-0.5,-17.3,1024,1024,1024,746,1024,,,,,
145,16.1,0m 16.1s,39.23054797,-77.25512608,P-GPS,8.2,2.5,8.9,2.7,1.1,0.5,3.0,0.9,39.23055476,-77.25511997,10,96,16.255,0.039,4.051,4.049,4.067,4.088,0,0,0,1.8,-0.5,-21.5,1024,1024,1024,740,1024,,,,,
146,16.2,0m 16.2s,39.23054781,-77.25512644,P-GPS,8.2,2.5,8.9,2.7,1.5,0.7,3.1,0.9,39.23055476,-77.25511997,10,96,16.255,0.039,4.051,4.049,4.067,4.088,0,0,0,1.8,-0.7,-25.8,1024,1024,1024,739,1024,,,,,
147,16.3,0m 16.3s,39.23054767,-77.25512674,P-GPS,8.2,2.5,8.9,2.7,0.0,0.0,3.2,1.0,39.23055476,-77.25511997,10,96,16.255,0.039,4.051,4.049,4.067,4.088,0,0,0,1.8,-0.7,-30.2,1024,1024,1024,739,1024,,,,,
148,16.4,0m 16.4s,39.23054756,-77.25512701,P-GPS,8.2,2.5,8.9,2.7,0.0,0.0,3.3,1.0,39.23055476,-77.25511997,10,96,16.255,0.039,4.051,4.049,4.067,4.088,0,0,0,1.5,-0.5,-34.4,1024,1024,1024,739,1024,,,,,
149,16.5,0m 16.5s,39.23054745,-77.25512724,P-GPS,8.2,2.5,8.9,2.7,0.0,0.0,3.4,1.0,39.23055476,-77.25511997,10,96,16.255,0.039,4.051,4.049,4.067,4.088,0,0,0,1.5,-0.4,-38.7,1024,1024,1024,740,1024,,,,,
150,16.6,0m 16.6s,39.23054739,-77.25512742,P-GPS,8.2,2.5,8.9,2.7,1.1,0.5,3.4,1.0,39.23055476,-77.25511997,10,96,16.255,0.039,4.051,4.049,4.067,4.088,0,0,0,1.4,-0.3,-43,1024,1024,1024,739,1024,,,,,
151,16.7,0m 16.7s,39.23054732,-77.25512758,P-GPS,8.2,2.5,8.9,2.7,0.0,0.0,3.5,1.1,39.23055476,-77.25511997,10,96,16.144,0.021,4.036,4.027,4.033,4.048,0,0,0,1.3,-0.4,-47.2,1024,1024,1024,739,1024,,,,,
152,16.8,0m 16.8s,39.2305473,-77.25512764,P-GPS,8.2,2.5,9.2,2.8,1.1,0.5,3.5,1.1,39.23055476,-77.25511997,10,96,16.144,0.021,4.036,4.027,4.033,4.048,0,0,0,1.3,-0.7,-51.5,1024,1024,1024,743,1024,,,,,
153,16.9,0m 16.9s,39.23054725,-77.25512768,P-GPS,8.2,2.5,9.2,2.8,0.0,0.0,3.5,1.1,39.23055476,-77.25511997,10,96,16.144,0.021,4.036,4.027,4.033,4.048,0,0,0,1.2,-0.8,-55.7,1024,1024,1024,747,1024,,,,,
154,17,0m 17s,39.23054722,-77.25512772,P-GPS,8.2,2.5,9.2,2.8,1.1,0.5,3.5,1.1,39.23055476,-77.25511997,10,96,16.144,0.021,4.036,4.027,4.033,4.048,0,0,0,1.1,-0.7,-59.7,1024,1024,1024,753,1024,,,,,
155,17.1,0m 17.1s,39.23054715,-77.2551278,P-GPS,8.2,2.5,8.9,2.7,0.0,0.0,3.5,1.1,39.23055476,-77.25511997,10,96,16.144,0.021,4.036,4.027,4.033,4.048,0,0,0,0.9,-0.4,-63.7,1024,1024,1024,757,1024,,,,,
156,17.3,0m 17.3s,39.23054696,-77.25512791,P-GPS,8.2,2.5,8.9,2.7,0.0,0.0,3.6,1.1,39.23055476,-77.25511997,10,96,16.144,0.021,4.036,4.027,4.033,4.048,0,0,0,0.8,-0.5,-71.1,1024,1024,1024,764,1024,,,,,
157,17.4,0m 17.4s,39.23054686,-77.25512795,P-GPS,8.2,2.5,8.9,2.7,0.0,0.0,3.7,1.1,39.23055476,-77.25511997,10,96,16.144,0.021,4.036,4.027,4.033,4.048,0,0,0,0.7,-0.6,-74.6,1024,1024,1024,745,1024,,,,,
158,17.5,0m 17.5s,39.23054677,-77.25512799,P-GPS,8.2,2.5,8.9,2.7,0.0,0.0,3.7,1.1,39.23055476,-77.25511997,10,96,16.144,0.021,4.036,4.027,4.033,4.048,0,0,0,0.7,-0.5,-78.3,1024,1024,1024,744,1024,,,,,
159,17.6,0m 17.6s,39.2305467,-77.255128,P-GPS,8.2,2.5,8.9,2.7,0.0,0.0,3.7,1.1,39.23055476,-77.25511997,10,96,16.144,0.021,4.036,4.027,4.033,4.048,0,0,0,0.8,-0.6,-82.3,1024,1024,1024,747,1024,,,,,
160,17.7,0m 17.7s,39.23054664,-77.25512799,P-GPS,7.9,2.4,8.9,2.7,0.0,0.0,3.7,1.1,39.23055476,-77.25511997,10,96,16.13,0.018,4.034,4.025,4.028,4.043,0,0,0,0.9,-1,-86.6,1024,1024,1024,756,1024,,,,,
161,17.8,0m 17.8s,39.23054659,-77.255128,P-GPS,7.9,2.4,8.9,2.7,0.0,0.0,3.8,1.1,39.23055476,-77.25511997,10,96,16.13,0.018,4.034,4.025,4.028,4.043,0,0,0,0.7,-1.6,-91,1024,1024,1024,766,1024,,,,,
162,17.9,0m 17.9s,39.23054653,-77.25512802,P-GPS,7.9,2.4,8.9,2.7,0.0,0.0,3.8,1.1,39.23055476,-77.25511997,10,96,16.13,0.018,4.034,4.025,4.028,4.043,0,0,0,0.4,-2,-95.1,1024,1024,1024,768,1024,,,,,
163,18,0m 18s,39.23054647,-77.25512805,P-GPS,7.9,2.4,8.9,2.7,0.0,0.0,3.8,1.2,39.23055476,-77.25511997,10,96,16.13,0.018,4.034,4.025,4.028,4.043,0,0,0,0.5,-1.9,-99.1,1024,1024,1024,769,1024,,,,,
164,18.1,0m 18.1s,39.2305464,-77.25512806,P-GPS,7.9,2.4,8.9,2.7,0.0,0.0,3.8,1.2,39.23055476,-77.25511997,10,96,16.13,0.018,4.034,4.025,4.028,4.043,0,0,0,0.4,-1.9,-103.1,1024,1024,1024,770,1024,,,,,
165,18.2,0m 18.2s,39.23054637,-77.25512806,P-GPS,7.9,2.4,8.9,2.7,0.0,0.0,3.8,1.2,39.23055476,-77.25511997,10,96,16.13,0.018,4.034,4.025,4.028,4.043,0,0,0,0.1,-1.7,-107,1024,1024,1024,770,1024,,,,,
166,18.3,0m 18.3s,39.23054632,-77.25512806,P-GPS,7.9,2.4,8.9,2.7,0.0,0.0,3.8,1.2,39.23055476,-77.25511997,10,96,16.13,0.018,4.034,4.025,4.028,4.043,0,0,0,0.4,-1.8,-110.9,1024,1024,1024,764,1024,,,,,
167,18.4,0m 18.4s,39.23054628,-77.25512807,P-GPS,7.9,2.4,8.9,2.7,0.0,0.0,3.8,1.2,39.23055476,-77.25511997,10,96,16.13,0.018,4.034,4.025,4.028,4.043,0,0,0,0.5,-1.7,-114.7,1024,1024,1024,765,1024,,,,,
168,18.6,0m 18.6s,39.23054616,-77.25512813,P-GPS,7.9,2.4,8.9,2.7,0.0,0.0,3.9,1.2,39.23055476,-77.25511997,10,96,16.13,0.018,4.034,4.025,4.028,4.043,0,0,0,0.6,-1.3,-122.6,1024,1024,1024,749,1024,,,,,
169,18.7,0m 18.7s,39.23054609,-77.25512816,P-GPS,7.9,2.4,8.9,2.7,0.0,0.0,3.9,1.2,39.23055476,-77.25511997,10,96,16.13,0.018,4.034,4.025,4.028,4.043,0,0,0,0.7,-1.4,-127,1024,1024,1024,828,1024,,,,,
170,18.8,0m 18.8s,39.23054605,-77.25512822,P-GPS,7.9,2.4,8.9,2.7,0.0,0.0,3.9,1.2,39.23055476,-77.25511997,10,96,16.13,0.018,4.034,4.025,4.028,4.043,0,0,0,0.6,-1.7,-131.3,1024,1024,1024,858,1024,,,,,
171,18.9,0m 18.9s,39.23054603,-77.25512825,P-GPS,7.9,2.4,8.5,2.6,0.0,0.0,3.9,1.2,39.23055476,-77.25511997,10,96,16.13,0.018,4.034,4.025,4.028,4.043,0,0,0,0.2,-2.2,-134.4,1024,1024,1024,933,1024,,,,,
172,19,0m 19s,39.23054601,-77.25512831,P-GPS,7.9,2.4,8.9,2.7,0.0,0.0,4.0,1.2,39.23055476,-77.25511997,10,96,16.13,0.018,4.034,4.025,4.028,4.043,0,0,0,0,-2.4,-136.8,1024,1024,1024,1024,1024,,,,,
173,19.1,0m 19.1s,39.23054598,-77.25512835,P-GPS,7.9,2.4,8.9,2.7,0.0,0.0,4.0,1.2,39.23055476,-77.25511997,10,96,16.13,0.018,4.034,4.025,4.028,4.043,0,0,0,0.2,-2.3,-138,1024,1024,1024,1024,1024,,,,,
174,19.2,0m 19.2s,39.23054597,-77.25512839,P-GPS,7.9,2.4,8.9,2.7,0.0,0.0,4.0,1.2,39.23055476,-77.25511997,10,96,16.13,0.018,4.034,4.025,4.028,4.043,0,0,0,0.3,-2.2,-138.1,1024,1024,1024,1024,1024,,,,,
175,19.3,0m 19.3s,39.23054597,-77.25512838,P-GPS,7.9,2.4,8.9,2.7,0.0,0.0,4.0,1.2,39.23055476,-77.25511997,10,96,16.13,0.018,4.034,4.025,4.028,4.043,0,0,0,-0.1,-2.2,-138.2,1024,1024,1024,1024,1024,,,,,
176,19.4,0m 19.4s,39.23054596,-77.25512839,P-GPS,8.2,2.5,8.9,2.7,0.0,0.0,4.0,1.2,39.23055476,-77.25511997,10,96,16.13,0.018,4.034,4.025,4.028,4.043,0,0,0,-0.3,-1.9,-138.2,1024,1024,1024,1024,1024,,,,,
177,19.5,0m 19.5s,39.23054593,-77.25512836,P-GPS,8.2,2.5,8.9,2.7,0.0,0.0,4.0,1.2,39.23055476,-77.25511997,10,96,16.13,0.018,4.034,4.025,4.028,4.043,0,0,0,-0.1,-1.5,-138.2,1024,1024,1024,1024,1024,,,,,
178,19.6,0m 19.6s,39.23054589,-77.25512832,P-GPS,7.9,2.4,8.9,2.7,0.0,0.0,4.0,1.2,39.23055476,-77.25511997,10,96,16.13,0.018,4.034,4.025,4.028,4.043,0,0,0,-0.2,-1.3,-138.2,1024,1024,1024,1024,1024,,,,,
179,19.8,0m 19.8s,39.2305458,-77.25512822,P-GPS,7.9,2.4,8.9,2.7,0.7,0.3,4.0,1.2,39.23055476,-77.25511997,10,96,16.104,0.018,4.028,4.018,4.022,4.036,0,0,0,-0.2,-0.6,-138.1,1024,1024,1024,1024,1024,,,,,
180,19.9,0m 19.9s,39.23054577,-77.25512818,P-GPS,7.9,2.4,8.9,2.7,0.0,0.0,4.0,1.2,39.23055476,-77.25511997,10,96,16.104,0.018,4.028,4.018,4.022,4.036,0,0,0,-0.5,-0.6,-138.1,1024,1024,1024,1024,1024,,,,,
181,20,0m 20s,39.23054576,-77.25512813,P-GPS,7.9,2.4,8.9,2.7,0.0,0.0,4.0,1.2,39.23055476,-77.25511997,10,96,16.104,0.018,4.028,4.018,4.022,4.036,0,0,0,-0.4,-0.8,-138.1,1024,1024,1024,1024,1024,,,,,
182,20.1,0m 20.1s,39.23054577,-77.25512805,P-GPS,7.9,2.4,8.9,2.7,0.0,0.0,4.0,1.2,39.23055476,-77.25511997,10,96,16.104,0.018,4.028,4.018,4.022,4.036,0,0,0,-0.3,-0.9,-138.1,1024,1024,1024,1024,1024,,,,,
183,20.2,0m 20.2s,39.23054578,-77.25512797,P-GPS,7.9,2.4,8.9,2.7,0.0,0.0,4.0,1.2,39.23055476,-77.25511997,10,96,16.104,0.018,4.028,4.018,4.022,4.036,0,0,0,-0.3,-0.8,-138.1,1024,1024,1024,1024,1024,,,,,
184,20.3,0m 20.3s,39.23054581,-77.25512788,P-GPS,7.9,2.4,8.9,2.7,0.0,0.0,4.0,1.2,39.23055476,-77.25511997,10,96,16.104,0.018,4.028,4.018,4.022,4.036,0,0,0,-0.4,-0.8,-138.1,1024,1024,1024,1024,1024,,,,,
185,20.4,0m 20.4s,39.23054584,-77.25512777,P-GPS,7.9,2.4,8.5,2.6,0.0,0.0,3.9,1.2,39.23055476,-77.25511997,10,96,16.104,0.018,4.028,4.018,4.022,4.036,0,0,0,-0.4,-1,-138.2,1024,1024,1024,1024,1024,,,,,
186,20.5,0m 20.5s,39.23054587,-77.25512765,P-GPS,7.9,2.4,8.9,2.7,0.0,0.0,3.9,1.2,39.23055476,-77.25511997,10,96,16.104,0.018,4.028,4.018,4.022,4.036,0,0,0,-0.3,-1.3,-138.2,1024,1024,1024,1024,1024,,,,,
187,20.6,0m 20.6s,39.23054596,-77.25512753,P-GPS,7.9,2.4,8.9,2.7,0.0,0.0,3.8,1.2,39.23055476,-77.25511997,11,96,16.125,0.02,4.033,4.022,4.028,4.042,0,0,0,-0.1,-1.1,-138.1,1024,1024,1024,1024,1024,,,,,
188,20.7,0m 20.7s,39.23054608,-77.2551274,P-GPS,7.9,2.4,8.9,2.7,0.0,0.0,3.8,1.2,39.23055476,-77.25511997,11,96,16.125,0.02,4.033,4.022,4.028,4.042,0,0,0,0,-0.7,-138,1024,1024,1024,1024,1024,,,,,
189,20.8,0m 20.8s,39.23054625,-77.25512728,P-GPS,7.9,2.4,8.9,2.7,0.0,0.0,3.7,1.1,39.23055476,-77.25511997,11,96,16.125,0.02,4.033,4.022,4.028,4.042,0,0,0,0,-0.7,-138.1,1024,1024,1024,1024,1024,,,,,
190,21,0m 21s,39.23054666,-77.25512707,P-GPS,7.9,2.4,8.5,2.6,1.0,0.4,3.6,1.1,39.23055476,-77.25511997,11,96,16.125,0.02,4.033,4.022,4.028,4.042,0,0,0,0.1,-2.1,-138.2,1024,1024,1024,1024,1024,,,,,
191,21.1,0m 21.1s,39.23054689,-77.25512696,P-GPS,7.9,2.4,8.5,2.6,0.0,0.0,3.5,1.1,39.23055476,-77.25511997,11,96,16.125,0.02,4.033,4.022,4.028,4.042,0,0,0,-0.1,-2.3,-138.2,1024,1024,1024,1024,1024,,,,,
192,21.2,0m 21.2s,39.23054718,-77.25512682,P-GPS,7.9,2.4,8.5,2.6,0.0,0.0,3.4,1.0,39.23055476,-77.25511997,11,96,16.125,0.02,4.033,4.022,4.028,4.042,0,0,0,-0.3,-2.1,-138.2,1024,1024,1024,1024,1024,,,,,
193,21.3,0m 21.3s,39.23054744,-77.25512667,P-GPS,7.9,2.4,8.5,2.6,0.0,0.0,3.3,1.0,39.23055476,-77.25511997,11,96,16.125,0.02,4.033,4.022,4.028,4.042,0,0,0,-0.2,-2,-138.2,1024,1024,1024,1024,1024,,,,,
194,21.4,0m 21.4s,39.2305477,-77.25512652,P-GPS,7.9,2.4,8.5,2.6,0.0,0.0,3.2,1.0,39.23055476,-77.25511997,11,96,16.125,0.02,4.033,4.022,4.028,4.042,0,0,0,-0.3,-2,-138.2,1024,1024,1024,1024,1024,,,,,
195,21.5,0m 21.5s,39.23054792,-77.25512636,P-GPS,8.2,2.5,8.5,2.6,0.0,0.0,3.1,0.9,39.23055476,-77.25511997,11,96,16.125,0.02,4.033,4.022,4.028,4.042,0,0,0,-0.4,-2.2,-138.2,1024,1024,1024,1024,1024,,,,,
196,21.6,0m 21.6s,39.23054816,-77.25512619,P-GPS,8.2,2.5,8.9,2.7,0.0,0.0,3.0,0.9,39.23055476,-77.25511997,11,96,16.125,0.02,4.033,4.022,4.028,4.042,0,0,0,-0.4,-2.2,-138.2,1024,1024,1024,1024,1024,,,,,
197,21.7,0m 21.7s,39.23054838,-77.255126,P-GPS,7.9,2.4,8.9,2.7,0.0,0.0,2.9,0.9,39.23055476,-77.25511997,11,96,16.125,0.02,4.033,4.022,4.028,4.042,0,0,0,-0.6,-2,-138.3,1024,1024,1024,1024,1024,,,,,
198,21.8,0m 21.8s,39.23054862,-77.2551258,P-GPS,7.9,2.4,8.9,2.7,0.0,0.0,2.8,0.8,39.23055476,-77.25511997,11,96,16.125,0.02,4.033,4.022,4.028,4.042,0,0,0,-0.7,-1.8,-138.3,1024,1024,1024,1024,1024,,,,,
199,21.9,0m 21.9s,39.23054884,-77.25512559,P-GPS,7.9,2.4,8.5,2.6,0.0,0.0,2.7,0.8,39.23055476,-77.25511997,11,96,16.125,0.02,4.033,4.022,4.028,4.042,0,0,0,-0.9,-1.9,-138.3,1024,1024,1024,1024,1024,,,,,
200,22,0m 22s,39.23054905,-77.2551254,P-GPS,7.9,2.4,8.5,2.6,0.0,0.0,2.6,0.8,39.23055476,-77.25511997,11,96,16.125,0.02,4.033,4.022,4.028,4.042,0,0,0,-1.1,-1.9,-138.2,1024,1024,1024,1024,1024,,,,,
201,22.1,0m 22.1s,39.23054923,-77.25512519,P-GPS,7.9,2.4,8.5,2.6,0.0,0.0,2.5,0.8,39.23055476,-77.25511997,11,96,16.125,0.02,4.033,4.022,4.028,4.042,0,0,0,-1.2,-1.9,-138.2,1024,1024,1024,1024,1024,,,,,
202,22.2,0m 22.2s,39.2305494,-77.25512499,P-GPS,7.9,2.4,8.5,2.6,0.0,0.0,2.4,0.7,39.23055476,-77.25511997,11,96,16.125,0.02,4.033,4.022,4.028,4.042,0,0,0,-1.4,-1.7,-138.2,1024,1024,1024,1024,1024,,,,,
203,22.3,0m 22.3s,39.23054957,-77.25512477,P-GPS,7.9,2.4,8.5,2.6,0.0,0.0,2.3,0.7,39.23055476,-77.25511997,11,96,16.125,0.02,4.033,4.022,4.028,4.042,0,0,0,-1.4,-1.4,-138.2,1024,1024,1024,1024,1024,,,,,
204,22.5,0m 22.5s,39.2305498,-77.25512443,P-GPS,7.9,2.4,8.5,2.6,0.0,0.0,2.2,0.7,39.23055476,-77.25511997,11,96,16.125,0.02,4.033,4.022,4.028,4.042,0,0,0,-1.3,-1.2,-138.2,1024,1024,1024,1024,1024,,,,,
205,22.6,0m 22.6s,39.23054989,-77.25512434,P-GPS,7.9,2.4,8.5,2.6,0.7,0.3,2.2,0.7,39.23055476,-77.25511997,11,96,16.125,0.02,4.033,4.022,4.028,4.042,0,0,0,-1.1,-1.3,-138.2,1024,1024,1024,1024,1024,,,,,
206,22.8,0m 22.8s,39.23055005,-77.25512424,P-GPS,7.9,2.4,8.5,2.6,0.0,0.0,2.1,0.6,39.23055476,-77.25511997,11,96,16.089,0.02,4.024,4.013,4.019,4.033,0,0,0,-0.7,-1.4,-138.2,1024,1024,1024,1024,1024,,,,,
207,22.9,0m 22.9s,39.23055011,-77.25512418,P-GPS,7.9,2.4,8.5,2.6,0.7,0.3,2.1,0.6,39.23055476,-77.25511997,11,96,16.089,0.02,4.024,4.013,4.019,4.033,0,0,0,-0.5,-1.3,-138.1,1024,1024,1024,1024,1024,,,,,
208,23,0m 23s,39.23055015,-77.25512416,P-GPS,7.9,2.4,8.5,2.6,0.0,0.0,2.1,0.6,39.23055476,-77.25511997,11,96,16.089,0.02,4.024,4.013,4.019,4.033,0,0,0,-0.6,-1.2,-138.1,1024,1024,1024,1024,1024,,,,,
209,23.1,0m 23.1s,39.23055023,-77.25512411,P-GPS,7.9,2.4,8.5,2.6,0.0,0.0,2.0,0.6,39.23055476,-77.25511997,11,96,16.089,0.02,4.024,4.013,4.019,4.033,0,0,0,-0.6,-1.3,-138.1,1024,1024,1024,1024,1024,,,,,
210,23.2,0m 23.2s,39.23055027,-77.2551241,P-GPS,7.9,2.4,8.5,2.6,0.0,0.0,2.0,0.6,39.23055476,-77.25511997,11,96,16.089,0.02,4.024,4.013,4.019,4.033,0,0,0,-0.6,-1.4,-138.1,1024,1024,1024,1024,1024,,,,,
211,23.3,0m 23.3s,39.23055032,-77.25512407,P-GPS,7.9,2.4,8.5,2.6,0.0,0.0,2.0,0.6,39.23055476,-77.25511997,11,96,16.089,0.02,4.024,4.013,4.019,4.033,0,0,0,-0.5,-1.5,-138.2,1024,1024,1024,1024,1024,,,,,
212,23.4,0m 23.4s,39.23055035,-77.25512405,P-GPS,7.9,2.4,8.5,2.6,1.1,0.5,2.0,0.6,39.23055476,-77.25511997,11,96,16.089,0.02,4.024,4.013,4.019,4.033,0,0,0,-0.4,-1.6,-138.2,1024,1024,1024,1024,1024,,,,,
213,23.5,0m 23.5s,39.23055039,-77.25512399,P-GPS,7.9,2.4,8.5,2.6,0.0,0.0,1.9,0.6,39.23055476,-77.25511997,11,96,16.089,0.02,4.024,4.013,4.019,4.033,0,0,0,-0.5,-1.6,-138.2,1024,1024,1024,1024,1024,,,,,
214,23.7,0m 23.7s,39.23055043,-77.25512388,P-GPS,7.9,2.4,8.5,2.6,0.0,0.0,1.9,0.6,39.23055476,-77.25511997,11,96,16.077,0.019,4.021,4.011,4.015,4.03,0,0,0,-0.4,-1.7,-138.2,1024,1024,1024,1024,1024,,,,,
215,23.8,0m 23.8s,39.23055044,-77.25512383,P-GPS,7.9,2.4,8.5,2.6,0.0,0.0,1.9,0.6,39.23055476,-77.25511997,11,96,16.077,0.019,4.021,4.011,4.015,4.03,0,0,0,-0.4,-1.6,-138.2,1024,1024,1024,1024,1024,,,,,
216,23.9,0m 23.9s,39.23055046,-77.25512374,P-GPS,7.9,2.4,8.5,2.6,0.0,0.0,1.9,0.6,39.23055476,-77.25511997,11,96,16.077,0.019,4.021,4.011,4.015,4.03,0,0,0,-0.4,-1.5,-138.2,1024,1024,1024,1024,1024,,,,,
217,24,0m 24s,39.23055048,-77.25512365,P-GPS,7.9,2.4,8.5,2.6,0.0,0.0,1.9,0.6,39.23055476,-77.25511997,11,96,16.077,0.019,4.021,4.011,4.015,4.03,0,0,0,-0.5,-1.2,-138.2,1024,1024,1024,1024,1024,,,,,
218,24.1,0m 24.1s,39.23055051,-77.25512353,P-GPS,7.9,2.4,8.5,2.6,0.0,0.0,1.8,0.6,39.23055476,-77.25511997,11,96,16.077,0.019,4.021,4.011,4.015,4.03,0,0,0,-0.5,-1.1,-138.2,1024,1024,1024,1024,1024,,,,,
219,24.3,0m 24.3s,39.23055056,-77.2551233,P-GPS,7.9,2.4,8.5,2.6,0.0,0.0,1.8,0.6,39.23055476,-77.25511997,11,96,16.077,0.019,4.021,4.011,4.015,4.03,0,0,0,-0.7,-1,-138.1,1024,1024,1024,1024,1024,,,,,
220,24.4,0m 24.4s,39.23055058,-77.25512316,P-GPS,7.9,2.4,8.5,2.6,0.0,0.0,1.8,0.5,39.23055476,-77.25511997,11,96,16.077,0.019,4.021,4.011,4.015,4.03,0,0,0,-0.8,-0.6,-138.1,1024,1024,1024,1024,1024,,,,,
221,24.5,0m 24.5s,39.23055061,-77.25512302,P-GPS,7.9,2.4,8.9,2.7,0.0,0.0,1.8,0.5,39.23055476,-77.25511997,11,96,16.077,0.019,4.021,4.011,4.015,4.03,0,0,0,-0.8,-0.5,-138.1,1024,1024,1024,1024,1024,,,,,
222,24.6,0m 24.6s,39.23055065,-77.25512289,P-GPS,7.9,2.4,8.9,2.7,0.0,0.0,1.7,0.5,39.23055476,-77.25511997,11,96,16.075,0.02,4.02,4.01,4.015,4.03,0,0,0,-0.7,-0.5,-138.2,1024,1024,1024,1024,1024,,,,,
223,24.7,0m 24.7s,39.23055069,-77.25512277,P-GPS,7.9,2.4,8.5,2.6,0.0,0.0,1.7,0.5,39.23055476,-77.25511997,11,96,16.075,0.02,4.02,4.01,4.015,4.03,0,0,0,-0.6,-0.6,-138.2,1024,1024,1024,1024,1024,,,,,
224,24.8,0m 24.8s,39.23055074,-77.25512264,P-GPS,7.9,2.4,8.9,2.7,0.0,0.0,1.6,0.5,39.23055476,-77.25511997,11,96,16.075,0.02,4.02,4.01,4.015,4.03,0,0,0,-0.6,-0.7,-138.2,1024,1024,1024,1024,1024,,,,,
225,24.9,0m 24.9s,39.23055079,-77.2551225,P-GPS,7.9,2.4,8.9,2.7,0.0,0.0,1.6,0.5,39.23055476,-77.25511997,11,96,16.075,0.02,4.02,4.01,4.015,4.03,0,0,0,-0.6,-0.8,-138.2,1024,1024,1024,1024,1024,,,,,
226,25,0m 25s,39.23055085,-77.25512236,P-GPS,7.9,2.4,8.9,2.7,0.0,0.0,1.6,0.5,39.23055476,-77.25511997,11,96,16.075,0.02,4.02,4.01,4.015,4.03,0,0,0,-0.6,-0.7,-138.2,1024,1024,1024,1024,1024,,,,,
227,25.1,0m 25.1s,39.23055091,-77.25512222,P-GPS,7.9,2.4,8.9,2.7,0.0,0.0,1.5,0.5,39.23055476,-77.25511997,11,96,16.075,0.02,4.02,4.01,4.015,4.03,0,0,0,-0.6,-0.7,-138.1,1024,1024,1024,1024,1024,,,,,
228,25.2,0m 25.2s,39.23055099,-77.2551221,P-GPS,8.2,2.5,8.9,2.7,0.0,0.0,1.5,0.5,39.23055476,-77.25511997,11,96,16.075,0.02,4.02,4.01,4.015,4.03,0,0,0,-0.6,-0.8,-138.1,1024,1024,1024,1024,1024,,,,,
229,25.3,0m 25.3s,39.23055108,-77.25512199,P-GPS,7.9,2.4,8.9,2.7,0.0,0.0,1.5,0.5,39.23055476,-77.25511997,11,96,16.075,0.02,4.02,4.01,4.015,4.03,0,0,0,-0.5,-0.9,-138.1,1024,1024,1024,1024,1024,,,,,
230,25.4,0m 25.4s,39.23055117,-77.2551219,P-GPS,7.9,2.4,8.5,2.6,0.0,0.0,1.4,0.4,39.23055476,-77.25511997,11,96,16.075,0.02,4.02,4.01,4.015,4.03,0,0,0,-0.5,-1.2,-138.2,1024,1024,1024,1024,1024,,,,,
231,25.6,0m 25.6s,39.2305513,-77.25512171,P-GPS,7.9,2.4,8.5,2.6,0.0,0.0,1.3,0.4,39.23055476,-77.25511997,11,96,16.075,0.02,4.02,4.01,4.015,4.03,0,0,0,-0.4,-1.1,-138.2,1024,1024,1024,1024,1024,,,,,
232,25.8,0m 25.8s,39.23055139,-77.25512153,P-GPS,7.9,2.4,8.5,2.6,0.0,0.0,1.3,0.4,39.23055476,-77.25511997,11,96,16.075,0.02,4.02,4.01,4.015,4.03,0,0,0,-0.3,-0.8,-138.2,1024,1024,1024,1024,1024,,,,,
233,25.9,0m 25.9s,39.23055144,-77.25512145,P-GPS,7.9,2.4,8.5,2.6,0.0,0.0,1.2,0.4,39.23055476,-77.25511997,11,96,16.075,0.02,4.02,4.01,4.015,4.03,0,0,0,-0.4,-0.7,-138.1,1024,1024,1024,1024,1024,,,,,
234,26,0m 26s,39.23055148,-77.25512138,P-GPS,7.9,2.4,8.9,2.7,0.0,0.0,1.2,0.4,39.23055476,-77.25511997,11,96,16.075,0.02,4.02,4.01,4.015,4.03,0,0,0,-0.3,-0.7,-138.1,1024,1024,1024,1024,1024,,,,,
235,26.1,0m 26.1s,39.23055152,-77.2551213,P-GPS,7.9,2.4,8.5,2.6,0.0,0.0,1.2,0.4,39.23055476,-77.25511997,11,96,16.075,0.02,4.02,4.01,4.015,4.03,0,0,0,-0.2,-0.9,-138.1,1024,1024,1024,1024,1024,,,,,
236,26.2,0m 26.2s,39.23055157,-77.25512126,P-GPS,7.9,2.4,8.9,2.7,0.0,0.0,1.2,0.4,39.23055476,-77.25511997,11,96,16.075,0.02,4.02,4.01,4.015,4.03,0,0,0,-0.2,-0.9,-138.1,1024,1024,1024,1024,1024,,,,,
237,26.3,0m 26.3s,39.23055161,-77.2551212,P-GPS,7.9,2.4,8.5,2.6,0.0,0.0,1.2,0.4,39.23055476,-77.25511997,11,96,16.075,0.02,4.02,4.01,4.015,4.03,0,0,0,-0.2,-0.9,-138.2,1024,1024,1024,1024,1024,,,,,
238,26.4,0m 26.4s,39.23055165,-77.25512117,P-GPS,7.9,2.4,8.5,2.6,0.0,0.0,1.2,0.4,39.23055476,-77.25511997,11,96,16.075,0.02,4.02,4.01,4.015,4.03,0,0,0,-0.2,-0.7,-138.2,1024,1024,1024,1024,1024,,,,,
239,26.5,0m 26.5s,39.23055169,-77.25512112,P-GPS,7.9,2.4,8.5,2.6,0.0,0.0,1.2,0.4,39.23055476,-77.25511997,11,96,16.075,0.02,4.02,4.01,4.015,4.03,0,0,0,-0.4,-0.5,-138.2,1024,1024,1024,1024,1024,,,,,
240,26.6,0m 26.6s,39.23055174,-77.25512109,P-GPS,7.9,2.4,8.5,2.6,0.0,0.0,1.2,0.4,39.23055476,-77.25511997,11,96,16.062,0.02,4.017,4.007,4.011,4.027,0,0,0,-0.1,-0.4,-138.2,1024,1024,1024,1024,1024,,,,,
241,26.7,0m 26.7s,39.23055179,-77.25512107,P-GPS,7.9,2.4,8.5,2.6,1.1,0.5,1.2,0.4,39.23055476,-77.25511997,11,96,16.062,0.02,4.017,4.007,4.011,4.027,0,0,0,0,-0.6,-138.2,1024,1024,1024,1024,1024,,,,,
242,26.8,0m 26.8s,39.23055187,-77.25512106,P-GPS,8.2,2.5,8.5,2.6,0.0,0.0,1.1,0.3,39.23055476,-77.25511997,11,96,16.062,0.02,4.017,4.007,4.011,4.027,0,0,0,-0.1,-0.8,-138.1,1024,1024,1024,1024,1024,,,,,
243,26.9,0m 26.9s,39.23055197,-77.25512104,P-GPS,8.2,2.5,8.5,2.6,0.0,0.0,1.1,0.3,39.23055476,-77.25511997,11,96,16.062,0.02,4.017,4.007,4.011,4.027,0,0,0,-0.3,-1,-138.1,1024,1024,1024,1024,1024,,,,,
244,27.1,0m 27.1s,39.23055214,-77.25512105,P-GPS,7.9,2.4,8.5,2.6,0.0,0.0,1.0,0.3,39.23055476,-77.25511997,11,96,16.062,0.02,4.017,4.007,4.011,4.027,0,0,0,-0.2,-1.1,-138,1024,1024,1024,1024,1024,,,,,
245,27.2,0m 27.2s,39.23055223,-77.25512107,P-GPS,7.9,2.4,8.5,2.6,0.0,0.0,1.0,0.3,39.23055476,-77.25511997,11,96,16.062,0.02,4.017,4.007,4.011,4.027,0,0,0,0,-1.2,-138.1,1024,1024,1024,1024,1024,,,,,
246,27.3,0m 27.3s,39.23055233,-77.25512108,P-GPS,7.9,2.4,8.9,2.7,0.0,0.0,1.0,0.3,39.23055476,-77.25511997,11,96,16.062,0.02,4.017,4.007,4.011,4.027,0,0,0,-0.2,-1.2,-138.1,1024,1024,1024,1024,1024,,,,,
247,27.4,0m 27.4s,39.23055241,-77.25512109,P-GPS,8.2,2.5,8.5,2.6,0.0,0.0,0.9,0.3,39.23055476,-77.25511997,11,96,16.062,0.02,4.017,4.007,4.011,4.027,0,0,0,-0.2,-1.2,-138.1,1024,1024,1024,1024,1024,,,,,
248,27.5,0m 27.5s,39.23055247,-77.25512109,P-GPS,8.2,2.5,8.5,2.6,0.0,0.0,0.9,0.3,39.23055476,-77.25511997,11,96,16.062,0.02,4.017,4.007,4.011,4.027,0,0,0,-0.1,-1.2,-138.1,1024,1024,1024,1024,1024,,,,,
249,27.6,0m 27.6s,39.23055255,-77.25512108,P-GPS,7.9,2.4,8.9,2.7,0.0,0.0,0.9,0.3,39.23055476,-77.25511997,11,96,16.059,0.022,4.016,4.005,4.011,4.027,0,0,0,0,-1,-138.1,1024,1024,1024,1024,1024,,,,,
250,27.7,0m 27.7s,39.23055263,-77.25512104,P-GPS,7.9,2.4,8.5,2.6,0.0,0.0,0.8,0.3,39.23055476,-77.25511997,11,96,16.059,0.022,4.016,4.005,4.011,4.027,0,0,0,-0.1,-0.8,-138,1024,1024,1024,1024,1024,,,,,
251,27.8,0m 27.8s,39.2305527,-77.25512103,P-GPS,8.2,2.5,8.5,2.6,0.0,0.0,0.8,0.3,39.23055476,-77.25511997,11,96,16.059,0.022,4.016,4.005,4.011,4.027,0,0,0,-0.1,-0.9,-138,1024,1024,1024,1024,1024,,,,,
252,27.9,0m 27.9s,39.23055276,-77.25512102,P-GPS,8.2,2.5,8.5,2.6,0.0,0.0,0.8,0.2,39.23055476,-77.25511997,11,96,16.059,0.022,4.016,4.005,4.011,4.027,0,0,0,-0.1,-0.8,-138,1024,1024,1024,1024,1024,,,,,
253,28,0m 28s,39.23055281,-77.255121,P-GPS,8.2,2.5,8.5,2.6,0.0,0.0,0.8,0.3,39.23055476,-77.25511997,11,96,16.059,0.022,4.016,4.005,4.011,4.027,0,0,0,0,-0.8,-137.9,1024,1024,1024,1024,1024,,,,,
254,28.1,0m 28.1s,39.23055286,-77.25512098,P-GPS,8.2,2.5,8.5,2.6,0.0,0.0,0.8,0.2,39.23055476,-77.25511997,11,96,16.059,0.022,4.016,4.005,4.011,4.027,0,0,0,0,-0.9,-138,1024,1024,1024,1024,1024,,,,,
255,28.2,0m 28.2s,39.2305529,-77.25512095,P-GPS,8.2,2.5,8.5,2.6,0.0,0.0,0.8,0.2,39.23055476,-77.25511997,11,96,16.059,0.022,4.016,4.005,4.011,4.027,0,0,0,0.2,-0.8,-138,1024,1024,1024,1024,1024,,,,,
256,28.3,0m 28.3s,39.23055294,-77.25512092,P-GPS,8.2,2.5,8.5,2.6,1.1,0.5,0.8,0.2,39.23055476,-77.25511997,11,96,16.059,0.022,4.016,4.005,4.011,4.027,0,0,0,0.3,-0.7,-138,1024,1024,1024,1024,1024,,,,,
257,28.4,0m 28.4s,39.23055297,-77.25512088,P-GPS,8.2,2.5,8.5,2.6,0.0,0.0,0.7,0.2,39.23055476,-77.25511997,11,96,16.059,0.022,4.016,4.005,4.011,4.027,0,0,0,0.3,-0.8,-138,1024,1024,1024,1024,1024,,,,,
258,28.6,0m 28.6s,39.23055302,-77.25512083,P-GPS,8.2,2.5,8.5,2.6,0.0,0.0,0.6,0.2,39.23055476,-77.25511997,11,96,16.06,0.021,4.016,4.006,4.011,4.027,0,0,0,0.4,-0.8,-138,1024,1024,1024,1024,1024,,,,,
259,28.7,0m 28.7s,39.23055303,-77.25512082,P-GPS,8.2,2.5,8.5,2.6,0.0,0.0,0.7,0.2,39.23055476,-77.25511997,11,96,16.06,0.021,4.016,4.006,4.011,4.027,0,0,0,0.5,-0.9,-138.1,1024,1024,1024,1024,1024,,,,,
260,28.8,0m 28.8s,39.23055305,-77.25512079,P-GPS,8.2,2.5,8.5,2.6,0.0,0.0,0.8,0.2,39.23055476,-77.25511997,11,96,16.06,0.021,4.016,4.006,4.011,4.027,0,0,0,0.4,-0.8,-138.1,1024,1024,1024,1024,1024,,,,,
261,28.9,0m 28.9s,39.23055307,-77.25512077,P-GPS,8.2,2.5,8.5,2.6,0.0,0.0,0.7,0.2,39.23055476,-77.25511997,11,96,16.06,0.021,4.016,4.006,4.011,4.027,0,0,0,0.2,-0.8,-138.1,1024,1024,1024,1024,1024,,,,,
262,29,0m 29s,39.2305531,-77.25512075,P-GPS,8.2,2.5,8.5,2.6,0.0,0.0,0.6,0.2,39.23055476,-77.25511997,11,96,16.06,0.021,4.016,4.006,4.011,4.027,0,0,0,0.2,-1,-138,1024,1024,1024,1024,1024,,,,,
263,29.1,0m 29.1s,39.23055313,-77.25512075,P-GPS,8.2,2.5,8.5,2.6,1.1,0.5,0.6,0.2,39.23055476,-77.25511997,11,96,16.06,0.021,4.016,4.006,4.011,4.027,0,0,0,0.7,-1.1,-138,1024,1024,1024,1024,1024,,,,,
264,29.2,0m 29.2s,39.23055317,-77.25512076,P-GPS,8.2,2.5,8.5,2.6,0.0,0.0,0.6,0.2,39.23055476,-77.25511997,11,96,16.06,0.021,4.016,4.006,4.011,4.027,0,0,0,0.9,-1.1,-138,1024,1024,1024,1024,1024,,,,,
265,29.3,0m 29.3s,39.2305532,-77.25512075,P-GPS,8.2,2.5,8.9,2.7,0.0,0.0,0.6,0.2,39.23055476,-77.25511997,11,96,16.06,0.021,4.016,4.006,4.011,4.027,0,0,0,1,-1.1,-138.1,1024,1024,1024,1024,1024,,,,,
266,29.4,0m 29.4s,39.23055325,-77.25512072,P-GPS,8.2,2.5,8.9,2.7,0.0,0.0,0.6,0.2,39.23055476,-77.25511997,11,96,16.06,0.021,4.016,4.006,4.011,4.027,0,0,0,0.9,-1.1,-138.2,1024,1024,1024,1024,1024,,,,,
267,29.5,0m 29.5s,39.23055329,-77.25512067,P-GPS,8.2,2.5,8.9,2.7,0.0,0.0,0.6,0.2,39.23055476,-77.25511997,11,96,16.06,0.021,4.016,4.006,4.011,4.027,0,0,0,0.8,-1.1,-138.2,1024,1024,1024,1024,1024,,,,,
268,29.6,0m 29.6s,39.23055336,-77.25512059,P-GPS,8.2,2.5,8.9,2.7,0.0,0.0,0.6,0.2,39.23055476,-77.25511997,11,96,16.06,0.021,4.016,4.006,4.011,4.027,0,0,0,0.7,-1,-138.2,1024,1024,1024,1024,1024,,,,,
269,29.7,0m 29.7s,39.23055341,-77.2551205,P-GPS,8.2,2.5,8.9,2.7,0.0,0.0,0.4,0.1,39.23055476,-77.25511997,11,96,16.06,0.021,4.016,4.006,4.011,4.027,0,0,0,0.7,-0.9,-138.2,1024,1024,1024,1024,1024,,,,,
270,29.8,0m 29.8s,39.23055346,-77.2551204,P-GPS,8.2,2.5,8.9,2.7,0.0,0.0,0.4,0.1,39.23055476,-77.25511997,11,96,16.06,0.021,4.016,4.006,4.011,4.027,0,0,0,0.6,-0.6,-138.2,1024,1024,1024,1024,1024,,,,,
271,29.9,0m 29.9s,39.23055349,-77.2551203,P-GPS,8.2,2.5,8.9,2.7,0.0,0.0,0.4,0.1,39.23055476,-77.25511997,11,96,16.06,0.021,4.016,4.006,4.011,4.027,0,0,0,0.4,-0.6,-138.2,1024,1024,1024,1024,1024,,,,,
272,30,0m 30s,39.23055354,-77.2551202,P-GPS,8.2,2.5,8.9,2.7,0.0,0.0,0.4,0.1,39.23055476,-77.25511997,11,96,16.06,0.021,4.016,4.006,4.011,4.027,0,0,0,0.3,-0.5,-138.2,1024,1024,1024,1024,1024,,,,,
273,30.1,0m 30.1s,39.23055359,-77.25512012,P-GPS,8.2,2.5,8.5,2.6,0.0,0.0,0.4,0.1,39.23055476,-77.25511997,11,96,16.06,0.021,4.016,4.006,4.011,4.027,0,0,0,0.3,-0.4,-138.2,1024,1024,1024,1024,1024,,,,,
274,30.2,0m 30.2s,39.23055367,-77.25512002,P-GPS,8.2,2.5,8.9,2.7,0.0,0.0,0.4,0.1,39.23055476,-77.25511997,11,96,16.06,0.021,4.016,4.006,4.011,4.027,0,0,0,0.2,-0.3,-138.2,1024,1024,1024,1024,1024,,,,,
275,30.3,0m 30.3s,39.23055377,-77.25511993,P-GPS,8.2,2.5,8.9,2.7,0.0,0.0,0.4,0.1,39.23055476,-77.25511997,11,96,16.06,0.021,4.016,4.006,4.011,4.027,0,0,0,0.1,-0.4,-138.1,1024,1024,1024,1024,1024,,,,,
276,30.5,0m 30.5s,39.23055395,-77.25511977,P-GPS,8.2,2.5,8.5,2.6,0.0,0.0,0.4,0.1,39.23055476,-77.25511997,11,96,16.06,0.021,4.016,4.006,4.011,4.027,0,0,0,0.2,-0.9,-138,1024,1024,1024,1024,1024,,,,,
277,30.6,0m 30.6s,39.23055401,-77.2551197,P-GPS,8.2,2.5,8.9,2.7,0.0,0.0,0.4,0.1,39.23055476,-77.25511997,11,96,16.067,0.02,4.019,4.008,4.012,4.028,0,0,0,0.1,-0.9,-138,1024,1024,1024,1024,1024,,,,,
278,30.8,0m 30.8s,39.23055407,-77.25511961,P-GPS,8.2,2.5,8.9,2.7,0.0,0.0,0.4,0.1,39.23055476,-77.25511997,11,96,16.067,0.02,4.019,4.008,4.012,4.028,0,0,0,0,-0.9,-138,1024,1024,1024,1024,1024,,,,,
279,30.9,0m 30.9s,39.23055409,-77.25511958,P-GPS,8.2,2.5,8.9,2.7,0.0,0.0,0.0,0.0,39.23055476,-77.25511997,11,96,16.067,0.02,4.019,4.008,4.012,4.028,0,0,0,0,-1,-138.1,1024,1024,1024,1024,1024,,,,,
280,31.3,0m 31.3s,39.23055425,-77.25511937,P-GPS,8.2,2.5,8.9,2.7,0.0,0.0,0.3,0.1,39.23055476,-77.25511997,11,96,16.067,0.02,4.019,4.008,4.012,4.028,0,0,0,0.4,-1,-138.1,1024,1024,1024,1024,1024,,,,,
281,31.4,0m 31.4s,39.23055426,-77.25511932,P-GPS,8.2,2.5,8.9,2.7,0.0,0.0,0.3,0.1,39.23055476,-77.25511997,11,96,16.067,0.02,4.019,4.008,4.012,4.028,0,0,0,0.5,-1,-138.1,1024,1024,1024,1024,1024,,,,,
282,31.5,0m 31.5s,39.23055426,-77.25511927,P-GPS,8.2,2.5,8.9,2.7,0.0,0.0,0.3,0.1,39.23055476,-77.25511997,11,96,16.067,0.02,4.019,4.008,4.012,4.028,0,0,0,0.6,-0.9,-138.2,1024,1024,1024,1024,1024,,,,,
283,31.6,0m 31.6s,39.23055425,-77.25511918,P-GPS,8.2,2.5,8.9,2.7,0.0,0.0,0.4,0.1,39.23055476,-77.25511997,11,95,16.061,0.021,4.017,4.006,4.011,4.027,0,0,0,0.6,-0.8,-138.2,1024,1024,1024,1024,1024,,,,,
284,31.7,0m 31.7s,39.23055424,-77.2551191,P-GPS,8.2,2.5,8.9,2.7,0.0,0.0,0.4,0.1,39.23055476,-77.25511997,11,95,16.061,0.021,4.017,4.006,4.011,4.027,0,0,0,0.4,-0.7,-138.2,1024,1024,1024,1024,1024,,,,,
285,31.8,0m 31.8s,39.23055424,-77.25511901,P-GPS,8.2,2.5,8.9,2.7,1.1,0.5,0.4,0.1,39.23055476,-77.25511997,11,95,16.061,0.021,4.017,4.006,4.011,4.027,0,0,0,0.4,-0.9,-138.2,1024,1024,1024,1024,1024,,,,,
286,31.9,0m 31.9s,39.23055426,-77.25511894,P-GPS,8.2,2.5,8.9,2.7,0.0,0.0,0.3,0.1,39.23055476,-77.25511997,11,95,16.061,0.021,4.017,4.006,4.011,4.027,0,0,0,0.5,-1,-138.2,1024,1024,1024,1024,1024,,,,,
287,32,0m 32s,39.23055427,-77.25511888,P-GPS,8.2,2.5,8.9,2.7,0.0,0.0,0.4,0.1,39.23055476,-77.25511997,11,95,16.061,0.021,4.017,4.006,4.011,4.027,0,0,0,0.5,-1,-138.2,1024,1024,1024,1024,1024,,,,,
288,32.1,0m 32.1s,39.23055428,-77.25511881,P-GPS,8.2,2.5,8.9,2.7,0.0,0.0,0.3,0.1,39.23055476,-77.25511997,11,95,16.061,0.021,4.017,4.006,4.011,4.027,0,0,0,0.6,-0.9,-138.2,1024,1024,1024,1024,1024,,,,,
289,32.2,0m 32.2s,39.23055428,-77.25511875,P-GPS,8.2,2.5,8.9,2.7,0.0,0.0,0.3,0.1,39.23055476,-77.25511997,11,95,16.061,0.021,4.017,4.006,4.011,4.027,0,0,0,0.5,-0.8,-138.2,1024,1024,1024,1024,1024,,,,,
290,32.3,0m 32.3s,39.23055428,-77.25511868,P-GPS,8.2,2.5,8.5,2.6,NaN,NaN,0.3,0.1,39.23055476,-77.25511997,11,95,16.061,0.021,4.017,4.006,4.011,4.027,0,0,0,0.4,-0.6,-138.1,1024,1024,1024,1024,1024,,,,,
291,32.4,0m 32.4s,39.23055428,-77.25511863,P-GPS,8.2,2.5,8.5,2.6,NaN,NaN,0.3,0.1,39.23055476,-77.25511997,11,95,16.061,0.021,4.017,4.006,4.011,4.027,0,0,0,0.6,-0.6,-138.1,1024,1024,1024,1024,1024,,,,,
292,32.6,0m 32.6s,39.23055427,-77.25511856,P-GPS,8.2,2.5,8.9,2.7,0.0,0.0,0.5,0.2,39.23055476,-77.25511997,11,95,16.061,0.021,4.017,4.006,4.011,4.027,0,0,0,0.8,-0.8,-138.1,1024,1024,1024,1024,1024,,,,,
293,32.7,0m 32.7s,39.23055427,-77.25511852,P-GPS,8.2,2.5,8.9,2.7,0.0,0.0,0.5,0.2,39.23055476,-77.25511997,11,95,16.06,0.019,4.016,4.007,4.011,4.026,0,0,0,0.6,-1,-138.2,1024,1024,1024,1024,1024,,,,,
294,32.8,0m 32.8s,39.23055426,-77.25511848,P-GPS,8.2,2.5,8.5,2.6,0.0,0.0,0.4,0.1,39.23055476,-77.25511997,11,95,16.06,0.019,4.016,4.007,4.011,4.026,0,0,0,0.5,-1,-138.2,1024,1024,1024,1024,1024,,,,,
295,32.9,0m 32.9s,39.23055425,-77.25511843,P-GPS,8.2,2.5,8.9,2.7,0.0,0.0,0.5,0.2,39.23055476,-77.25511997,11,95,16.06,0.019,4.016,4.007,4.011,4.026,0,0,0,0.8,-1,-138.2,1024,1024,1024,1024,1024,,,,,
296,33,0m 33s,39.23055424,-77.25511837,P-GPS,8.2,2.5,8.5,2.6,0.0,0.0,0.4,0.1,39.23055476,-77.25511997,11,95,16.06,0.019,4.016,4.007,4.011,4.026,0,0,0,1,-0.7,-138.2,1024,1024,1024,1024,1024,,,,,
297,33.1,0m 33.1s,39.23055424,-77.2551183,P-GPS,8.2,2.5,8.5,2.6,1.1,0.5,0.4,0.1,39.23055476,-77.25511997,11,95,16.06,0.019,4.016,4.007,4.011,4.026,0,0,0,0.8,-0.5,-138.2,1024,1024,1024,1024,1024,,,,,
298,33.2,0m 33.2s,39.23055427,-77.2551182,P-GPS,8.2,2.5,8.5,2.6,0.0,0.0,0.5,0.2,39.23055476,-77.25511997,11,95,16.06,0.019,4.016,4.007,4.011,4.026,0,0,0,0.6,-0.5,-138.2,1024,1024,1024,1024,1024,,,,,
299,33.3,0m 33.3s,39.23055431,-77.25511811,P-GPS,8.2,2.5,8.9,2.7,0.0,0.0,0.5,0.2,39.23055476,-77.25511997,11,95,16.06,0.019,4.016,4.007,4.011,4.026,0,0,0,0.4,-0.6,-138.2,1024,1024,1024,1024,1024,,,,,
300,33.4,0m 33.4s,39.23055435,-77.25511803,P-GPS,8.2,2.5,8.5,2.6,0.0,0.0,0.6,0.2,39.23055476,-77.25511997,11,95,16.06,0.019,4.016,4.007,4.011,4.026,0,0,0,0.4,-0.6,-138.1,1024,1024,1024,1024,1024,,,,,
301,33.5,0m 33.5s,39.23055438,-77.25511797,P-GPS,8.2,2.5,8.5,2.6,0.0,0.0,0.5,0.2,39.23055476,-77.25511997,11,95,16.06,0.019,4.016,4.007,4.011,4.026,0,0,0,0.4,-0.6,-138.1,1024,1024,1024,1024,1024,,,,,
302,33.6,0m 33.6s,39.2305544,-77.2551179,P-GPS,8.2,2.5,8.5,2.6,0.0,0.0,0.6,0.2,39.23055476,-77.25511997,11,95,16.06,0.019,4.016,4.007,4.011,4.026,0,0,0,0.5,-0.8,-138.1,1024,1024,1024,1024,1024,,,,,
303,33.7,0m 33.7s,39.23055441,-77.25511784,P-GPS,8.2,2.5,8.5,2.6,0.0,0.0,0.6,0.2,39.23055476,-77.25511997,11,95,16.06,0.019,4.016,4.007,4.011,4.026,0,0,0,0.5,-0.8,-138,1024,1024,1024,1024,1024,,,,,
304,33.9,0m 33.9s,39.23055438,-77.25511775,P-GPS,8.2,2.5,8.5,2.6,0.0,0.0,0.6,0.2,39.23055476,-77.25511997,11,95,16.06,0.019,4.016,4.007,4.011,4.026,0,0,0,0.9,-0.7,-138,1024,1024,1024,1024,1024,,,,,
305,34,0m 34s,39.23055437,-77.25511773,P-GPS,8.2,2.5,8.5,2.6,0.0,0.0,0.6,0.2,39.23055476,-77.25511997,11,95,16.06,0.019,4.016,4.007,4.011,4.026,0,0,0,0.9,-0.9,-138,1024,1024,1024,1024,1024,,,,,
306,34.1,0m 34.1s,39.23055435,-77.25511771,P-GPS,8.2,2.5,8.5,2.6,0.0,0.0,0.7,0.2,39.23055476,-77.25511997,11,95,16.06,0.019,4.016,4.007,4.011,4.026,0,0,0,0.9,-1,-138,1024,1024,1024,1024,1024,,,,,
